"id","impact.gap","impact.magnitude","impact.significance","location.depth","location.distance","location.full","location.latitude","location.longitude","location.name","time.day","time.epoch","time.full","time.hour","time.minute","time.month","time.second","time.year"
"nc72666881","122.0","1.43","31","15.12","0.1034","13km E of Livermore, California","37.6723333","-121.619","California","27","1469593183550","2016-07-27 00:19:43","0","19","7","43","2016"
"us20006i0y","30.0","4.9","371","97.07","1.439","58km WNW of Pakokku, Burma","21.5146","94.5721","Burma","27","1469593228220","2016-07-27 00:20:28","0","20","7","28","2016"
"nc72666891","249.0","0.06","0","4.39","0.02743","12km SE of Mammoth Lakes, California","37.5765","-118.8591667","California","27","1469593897150","2016-07-27 00:31:37","0","31","7","37","2016"
"nc72666896","122.0","0.4","2","1.09","0.02699","6km SSW of Mammoth Lakes, California","37.5958333","-118.9948333","California","27","1469594144150","2016-07-27 00:35:44","0","35","7","44","2016"
"nn00553447","113.61","0.3","1","7.6","0.063","16km SSE of Mogul, Nevada","39.3775","-119.845","Nevada","27","1469594519667","2016-07-27 00:41:59","0","41","7","59","2016"
"ak13805337","50.399995968","1.8","50","1.3","0.04491576","91km N of Redoubt Volcano, Alaska","61.2963","-152.46","Alaska","27","1469595172000","2016-07-27 00:52:52","0","52","7","52","2016"
"hv61354276","93.0","1.0","15","2.452","0.0266","27km E of Honaunau-Napoopoo, Hawaii","19.4235","-155.6098333","Hawaii","27","1469595215550","2016-07-27 00:53:35","0","53","7","35","2016"
"ak13805339","86.399993088","2.0","62","0.1","0.04581408","92km NW of Nikiski, Alaska","61.3019","-152.4507","Alaska","27","1469595525000","2016-07-27 00:58:45","0","58","7","45","2016"
"ci37640584","149.0","1.2","22","0.18","0.1688","12km SE of Bodfish, CA","35.503","-118.4058333","California","27","1469595780250","2016-07-27 01:03:00","1","3","7","0","2016"
"nc72666901","87.0","1.67","43","12.91","0.106","13km E of Livermore, California","37.673","-121.6133333","California","27","1469595872100","2016-07-27 01:04:32","1","4","7","32","2016"
"ci37640592","75.0","0.48","4","13.85","0.04401","14km WNW of Anza, CA","33.5888333","-116.8165","California","27","1469596191870","2016-07-27 01:09:51","1","9","7","51","2016"
"nn00553416","117.62","0.9","12","11.2","0.181","30km SSW of Hawthorne, Nevada","38.2638","-118.7351","Nevada","27","1469596411455","2016-07-27 01:13:31","1","13","7","31","2016"
"nc71104689","190.0","0.51","4","4.3","0.0986","14km S of Ridgemark, California","36.6811667","-121.3368333","California","27","1469596638700","2016-07-27 01:17:18","1","17","7","18","2016"
"nc71104624","315.0","0.53","4","2.77","0.05199","27km NE of Hollister, California","37.0286667","-121.19","California","27","1469596649290","2016-07-27 01:17:29","1","17","7","29","2016"
"uu60156827","120.0","0.14","0","6.15","0.02632","11km NW of West Yellowstone, Montana","44.7263333","-111.2098333","Montana","27","1469596826130","2016-07-27 01:20:26","1","20","7","26","2016"
"pr16209000","154.8","1.6","39","19.0","0.11678099","2km WSW of Sabana Grande, Puerto Rico","18.072","-66.9848","Puerto Rico","27","1469597474500","2016-07-27 01:31:14","1","31","7","14","2016"
"ak13805345","255.599979552","2.1","68","13.4","0.3494446","66km SSE of Little Sitkin Island, Alaska","51.3716","178.7402","Alaska","27","1469598042000","2016-07-27 01:40:42","1","40","7","42","2016"
"ci37640600","92.0","0.73","8","1.5","0.08636","24km E of Coso Junction, CA","36.0758333","-117.6788333","California","27","1469598164660","2016-07-27 01:42:44","1","42","7","44","2016"
"nc71104629","163.0","0.22","1","1.8","0.0528","26km NE of Hollister, California","37.0263333","-121.1936667","California","27","1469598289010","2016-07-27 01:44:49","1","44","7","49","2016"
"nc72666906","64.0","1.22","23","1.41","0.006449","2km E of The Geysers, California","38.7763333","-122.7245","California","27","1469598359800","2016-07-27 01:45:59","1","45","7","59","2016"
"nc72666911","54.0","0.55","5","2.41","0.005954","9km WNW of Cobb, California","38.8415","-122.8288333","California","27","1469598538080","2016-07-27 01:48:58","1","48","7","58","2016"
"hv61354336","48.0","1.47","33","1.49","0.005541","5km WSW of Volcano, Hawaii","19.4074993","-155.2843323","Hawaii","27","1469598574550","2016-07-27 01:49:34","1","49","7","34","2016"
"ak13805346","53.99999568","1.2","22","15.4","0.2299687","27km NNE of Talkeetna, Alaska","62.5408","-149.8593","Alaska","27","1469598632000","2016-07-27 01:50:32","1","50","7","32","2016"
"ci37640608","98.0","0.81","10","2.04","0.138","17km NE of Coachella, CA","33.7878333","-116.037","California","27","1469599106530","2016-07-27 01:58:26","1","58","7","26","2016"
"ak13831347","107.99999136","1.6","39","70.5","0.5713285","78km SW of Homer, Alaska","59.1835","-152.5865","Alaska","27","1469600108000","2016-07-27 02:15:08","2","15","7","8","2016"
"ci37640616","64.0","0.75","9","3.18","0.04043","20km E of Little Lake, CA","35.9231667","-117.6898333","California","27","1469600453670","2016-07-27 02:20:53","2","20","7","53","2016"
"nc72666931","55.0","1.4","30","2.05","0.01002","7km WNW of Cobb, California","38.8348333","-122.8023333","California","27","1469600527210","2016-07-27 02:22:07","2","22","7","7","2016"
"ak13805347","79.199993664001","0.8","10","9.7","0.3593261","40km SW of Manley Hot Springs, Alaska","64.7377","-151.2365","Alaska","27","1469600769000","2016-07-27 02:26:09","2","26","7","9","2016"
"ci37640624","56.0","1.13","20","2.7","0.04073","7km NE of Little Lake, CA","35.978","-117.8535","California","27","1469601509690","2016-07-27 02:38:29","2","38","7","29","2016"
"nc72666946","78.0","0.47","3","4.91","0.0235","2km ESE of Mammoth Lakes, California","37.6363333","-118.9426667","California","27","1469601770710","2016-07-27 02:42:50","2","42","7","50","2016"
"us20006i18","45.0","5.6","482","98.84","1.358","155km SSE of San Pedro de Atacama, Chile","-24.286","-67.8647","Chile","27","1469601825710","2016-07-27 02:43:45","2","43","7","45","2016"
"pr16209001","172.8","3.6","199","163.0","0.36561432","4km W of Salvaleon de Higuey, Dominican Republic","18.6138","-68.7526","Dominican Republic","27","1469602819400","2016-07-27 03:00:19","3","0","7","19","2016"
"ci37640640","126.0","0.28","1","3.93","0.04043","6km NE of Little Lake, CA","35.9758333","-117.8596667","California","27","1469602938570","2016-07-27 03:02:18","3","2","7","18","2016"
"ak13831349","79.199993664001","1.2","22","20.2","0.2461384","47km W of Valdez, Alaska","61.1163","-147.2352","Alaska","27","1469603172000","2016-07-27 03:06:12","3","6","7","12","2016"
"ak13805706","28.799997696","2.3","81","11.6","0.367411","104km NW of Talkeetna, Alaska","63.0332","-151.4388","Alaska","27","1469603398000","2016-07-27 03:09:58","3","9","7","58","2016"
"nn00553420","173.77","1.1","19","0.6","0.662","33km SSE of Bunkerville, Nevada","36.49","-113.9923","Nevada","27","1469603931353","2016-07-27 03:18:51","3","18","7","51","2016"
"ak13831351","64.799994816","1.5","35","72.2","0.2937491","32km W of Kalifornsky, Alaska","60.4444","-151.8699","Alaska","27","1469603963000","2016-07-27 03:19:23","3","19","7","23","2016"
"us10006aa8","248.0","2.5","96","26.5","1.348","172km S of False Pass, Alaska","53.302","-163.5048","Alaska","27","1469604148000","2016-07-27 03:22:28","3","22","7","28","2016"
"ak13831353","75.599993952001","1.3","26","64.7","0.3198002","62km N of Nikiski, Alaska","61.251","-151.3632","Alaska","27","1469604313000","2016-07-27 03:25:13","3","25","7","13","2016"
"ak13805716","43.199996544","2.0","62","16.3","0.2578165","16km W of Y, Alaska","62.1521","-150.1588","Alaska","27","1469604738000","2016-07-27 03:32:18","3","32","7","18","2016"
"nc72666956","53.0","1.75","47","1.56","0.0119","0km E of The Geysers, California","38.7781667","-122.7505","California","27","1469606179040","2016-07-27 03:56:19","3","56","7","19","2016"
"nc72666961","74.0","0.62","6","2.25","0.005599","3km S of Cobb, California","38.7885","-122.7218333","California","27","1469606449670","2016-07-27 04:00:49","4","0","7","49","2016"
"pr16209003","342.0","2.7","112","75.0","1.15972503","114km NNE of Road Town, British Virgin Islands","19.3997","-64.2795","British Virgin Islands","27","1469606677400","2016-07-27 04:04:37","4","4","7","37","2016"
"nc72666966","137.0","0.8","10","1.54","0.07576","19km SE of Mammoth Lakes, California","37.5141667","-118.8263333","California","27","1469606803300","2016-07-27 04:06:43","4","6","7","43","2016"
"pr16209002","151.2","1.8","50","15.0","0.04491576","0km NW of Luis Llorens Torres, Puerto Rico","18.0625","-66.5327","Puerto Rico","27","1469607049000","2016-07-27 04:10:49","4","10","7","49","2016"
"hv61354386","289.0","1.83","52","11.266","0.5525","75km S of Leilani Estates, Hawaii","18.7893333","-154.8673333","Hawaii","27","1469607200470","2016-07-27 04:13:20","4","13","7","20","2016"
"ak13805719","158.399987328","2.6","104","12.3","0.1293574","19km NNW of Chernabura Island, Alaska","54.9592","-159.6299","Alaska","27","1469607637000","2016-07-27 04:20:37","4","20","7","37","2016"
"ak13831356","64.799994816","1.3","26","51.3","0.4006486","32km W of Anchorage, Alaska","61.2406","-150.5094","Alaska","27","1469607995000","2016-07-27 04:26:35","4","26","7","35","2016"
"ci37640656","79.0","0.06","0","1.41","0.03807","12km NE of Little Lake, CA","36.0171667","-117.8111667","California","27","1469609040020","2016-07-27 04:44:00","4","44","7","0","2016"
"ci37640648","78.0","0.75","9","11.04","0.04434","15km ESE of Anza, CA","33.5145","-116.5175","California","27","1469609158570","2016-07-27 04:45:58","4","45","7","58","2016"
"ci37640664","75.0","1.6","39","10.02","0.02385","7km NNE of Imperial, CA","32.905","-115.5326667","California","27","1469609323570","2016-07-27 04:48:43","4","48","7","43","2016"
"ak13806082","35.99999712","2.3","81","0.1","0.5551588","51km NNE of Nikiski, Alaska","61.1172","-150.9111","Alaska","27","1469609389000","2016-07-27 04:49:49","4","49","7","49","2016"
"ak13806091","68.399994528","0.3","1","22.2","0.1024079","19km NNW of North Nenana, Alaska","64.7401","-149.2947","Alaska","27","1469610306000","2016-07-27 05:05:06","5","5","7","6","2016"
"ak13831361","179.9999856","2.1","68","63.2","0.3233935","52km SSE of Cold Bay, Alaska","54.7822","-162.2961","Alaska","27","1469610700000","2016-07-27 05:11:40","5","11","7","40","2016"
"ak13806093","68.399994528","1.1","19","2.7","0.06378039","87km NNW of Nikiski, Alaska","61.4464","-151.7569","Alaska","27","1469611258000","2016-07-27 05:20:58","5","20","7","58","2016"
"us20006i27","98.0","4.9","369","30.07","1.049","253km NNW of Tual, Indonesia","-3.7122","131.5537","Indonesia","27","1469611319800","2016-07-27 05:21:59","5","21","7","59","2016"
"ak13806094","93.599992512001","0.5","4","13.3","0.1248658","152km W of Cantwell, Alaska","63.5351","-151.9833","Alaska","27","1469612204000","2016-07-27 05:36:44","5","36","7","44","2016"
"ak13806095","86.399993088","1.0","15","10.4","0.5857016","65km NW of Arctic Village, Alaska","68.5121","-146.7507","Alaska","27","1469612388000","2016-07-27 05:39:48","5","39","7","48","2016"
"us100069gj","87.0","4.2","271","234.15","2.9","42km NNE of Poigar, Indonesia","1.3512","124.434","Indonesia","27","1469613212690","2016-07-27 05:53:32","5","53","7","32","2016"
"nc72666971","62.0","1.84","52","4.84","0.06195","12km S of Ridgemark, California","36.7","-121.3381667","California","27","1469613773880","2016-07-27 06:02:53","6","2","7","53","2016"
"ak13831365","208.799983296","0.9","12","19.1","0.1958327","72km ENE of Cape Yakataga, Alaska","60.2452","-141.1849","Alaska","27","1469613916000","2016-07-27 06:05:16","6","5","7","16","2016"
"ak13806463","97.199992224001","1.5","35","95.9","0.1284591","96km W of Willow, Alaska","61.6271","-151.8501","Alaska","27","1469614248000","2016-07-27 06:10:48","6","10","7","48","2016"
"nc72666976","194.0","1.75","47","8.4","0.1164","6km SW of Huron, California","36.1681667","-120.1663333","California","27","1469614373600","2016-07-27 06:12:53","6","12","7","53","2016"
"ak13831367","93.599992512001","1.2","22","17.2","0.350343","40km NNW of Valdez, Alaska","61.4586","-146.6547","Alaska","27","1469614772000","2016-07-27 06:19:32","6","19","7","32","2016"
"ci37640696","91.0","0.59","5","10.44","0.0874","10km NNE of Trabuco Canyon, CA","33.7398333","-117.5278333","California","27","1469615023900","2016-07-27 06:23:43","6","23","7","43","2016"
"ak13806465","82.799993376001","1.2","22","15.0","0.08623827","13km NW of Willow, Alaska","61.8231","-150.2247","Alaska","27","1469615224000","2016-07-27 06:27:04","6","27","7","4","2016"
"ci37640704","86.0","0.84","11","8.03","0.1368","24km ESE of Julian, CA","33.0166667","-116.3543333","California","27","1469615346340","2016-07-27 06:29:06","6","29","7","6","2016"
"ak13831369","133.199989344","1.1","19","30.2","0.2712912","43km N of Valdez, Alaska","61.5179","-146.4904","Alaska","27","1469616179000","2016-07-27 06:42:59","6","42","7","59","2016"
"nc72666986","101.0","0.71","8","2.11","0.008326","6km NW of The Geysers, California","38.8160019","-122.8150024","California","27","1469616337320","2016-07-27 06:45:37","6","45","7","37","2016"
"hv61354436","75.0","2.1","68","1.84","0.008751","5km WSW of Volcano, Hawaii","19.4034996","-155.2831726","Hawaii","27","1469616598220","2016-07-27 06:49:58","6","49","7","58","2016"
"ak13831370","86.399993088","1.6","39","84.4","0.3350716","57km SW of Anchor Point, Alaska","59.4809","-152.6624","Alaska","27","1469616720000","2016-07-27 06:52:00","6","52","7","0","2016"
"ak13806467","118.799990496","0.6","6","8.8","0.3611227","119km NNW of Talkeetna, Alaska","63.2389","-151.3281","Alaska","27","1469617364000","2016-07-27 07:02:44","7","2","7","44","2016"
"ak13831372","89.999992800001","1.7","44","71.0","0.678228","95km NW of Kodiak Station, Alaska","58.4244","-153.6441","Alaska","27","1469617619000","2016-07-27 07:06:59","7","6","7","59","2016"
"us100067t9","248.0","3.3","168","2.6","0.994","126km S of Unalaska, Alaska","52.7406","-166.6875","Alaska","27","1469618017000","2016-07-27 07:13:37","7","13","7","37","2016"
"uw61172232","74.0","1.3","26","16.7","0.04072","9km SSW of Riverbend, Washington","47.3855","-121.7835","Washington","27","1469618520600","2016-07-27 07:22:00","7","22","7","0","2016"
"us20006i2f","96.0","4.8","354","10.0","6.743","Southern East Pacific Rise","-21.7716","-113.8676","Southern East Pacific Rise","27","1469618833540","2016-07-27 07:27:13","7","27","7","13","2016"
"ak13831374","133.199989344","1.3","26","7.5","0.2551215","59km E of Whittier, Alaska","60.8123","-147.6027","Alaska","27","1469619061000","2016-07-27 07:31:01","7","31","7","1","2016"
"nc72666991","94.0","1.02","16","2.32","0.009271","6km NW of The Geysers, California","38.8123322","-122.8181686","California","27","1469619589240","2016-07-27 07:39:49","7","39","7","49","2016"
"ak13806836","295.199976384","1.9","56","8.2","0.49587","91km S of Little Sitkin Island, Alaska","51.1326","178.6078","Alaska","27","1469619685000","2016-07-27 07:41:25","7","41","7","25","2016"
"us20006i2h","92.0","4.0","246","227.52","1.166","117km NW of San Antonio de los Cobres, Argentina","-23.3566","-66.9895","Argentina","27","1469619953230","2016-07-27 07:45:53","7","45","7","53","2016"
"ak13831376","266.399978688","2.3","81","9.1","1.016893","127km S of Unalaska, Alaska","52.7317","-166.6461","Alaska","27","1469620067000","2016-07-27 07:47:47","7","47","7","47","2016"
"us20006i2i","85.0","4.9","375","35.0","3.968","3km SW of Ipil, Philippines","10.9473","124.6154","Philippines","27","1469620575330","2016-07-27 07:56:15","7","56","7","15","2016"
"ak13806840","79.199993664001","1.1","19","14.8","0.2874609","186km WNW of Haines Junction, Canada","61.4966","-140.6142","Canada","27","1469621081000","2016-07-27 08:04:41","8","4","7","41","2016"
"ci37640736","85.0","1.02","16","12.58","0.1562","27km SSW of Ocotillo Wells, CA","32.9211667","-116.2398333","California","27","1469621133840","2016-07-27 08:05:33","8","5","7","33","2016"
"hv61354531","65.0","1.99","61","5.327","0.0776","11km WSW of Pahala, Hawaii","19.173","-155.5863333","Hawaii","27","1469621205860","2016-07-27 08:06:45","8","6","7","45","2016"
"ak13831378","205.199983584","2.4","89","12.2","0.797704","114km SE of Cold Bay, Alaska","54.4634","-161.4569","Alaska","27","1469621361000","2016-07-27 08:09:21","8","9","7","21","2016"
"nn00553474","317.24","0.8","10","14.3","0.327","35km NE of Fernley, Nevada","39.8674","-119.0119","Nevada","27","1469621737193","2016-07-27 08:15:37","8","15","7","37","2016"
"ci37640744","70.0","1.34","28","12.5","0.03139","13km N of Cabazon, CA","34.0308333","-116.7703333","California","27","1469621806300","2016-07-27 08:16:46","8","16","7","46","2016"
"us20006i2n","101.0","4.8","354","73.33","1.645","83km ESE of Taron, Papua New Guinea","-4.8676","153.6709","Papua New Guinea","27","1469622158000","2016-07-27 08:22:38","8","22","7","38","2016"
"ci37640752","78.0","1.03","16","3.34","0.0749","25km WNW of Desert Center, CA","33.7811667","-115.6553333","California","27","1469622532610","2016-07-27 08:28:52","8","28","7","52","2016"
"ak13806850","197.99998416","3.2","158","31.8","1.143555","133km WSW of Chernabura Island, Alaska","54.1201","-161.2719","Alaska","27","1469622678000","2016-07-27 08:31:18","8","31","7","18","2016"
"nc72667001","59.0","1.22","23","8.37","0.03158","6km NE of East Foothills, California","37.4285","-121.7716667","California","27","1469622875920","2016-07-27 08:34:35","8","34","7","35","2016"
"us20006i2p","51.0","4.5","312","109.2","1.439","9km SSE of Nahrin, Afghanistan","35.9805","69.1573","Afghanistan","27","1469623035490","2016-07-27 08:37:15","8","37","7","15","2016"
"nn00553426","61.22","2.0","62","6.3","0.19","20km NW of Hawthorne, Nevada","38.6459","-118.7994","Nevada","27","1469623107375","2016-07-27 08:38:27","8","38","7","27","2016"
"ak13831380","107.99999136","1.0","15","92.0","0.6243291","69km NNW of Talkeetna, Alaska","62.8542","-150.8216","Alaska","27","1469623617000","2016-07-27 08:46:57","8","46","7","57","2016"
"nc72667006","92.0","1.74","47","4.3","0.05841","8km SSW of Kelseyville, California","38.9155","-122.8926667","California","27","1469624250830","2016-07-27 08:57:30","8","57","7","30","2016"
"ak13807229","158.399987328","2.0","62","4.8","0.2488333","24km NNW of Chignik Lake, Alaska","56.444","-158.9668","Alaska","27","1469625238000","2016-07-27 09:13:58","9","13","7","58","2016"
"ci37640768","54.0","1.53","36","0.58","0.07573","9km E of Yucaipa, CA","34.018","-116.9448333","California","27","1469625467490","2016-07-27 09:17:47","9","17","7","47","2016"
"ci37640776","48.0","1.82","51","6.73","0.1328","24km ESE of Julian, CA","33.0133333","-116.3573333","California","27","1469625571060","2016-07-27 09:19:31","9","19","7","31","2016"
"us20006i2u","124.0","4.1","259","193.92","1.471","97km W of San Antonio de los Cobres, Argentina","-24.1725","-67.2739","Argentina","27","1469625665250","2016-07-27 09:21:05","9","21","7","5","2016"
"ak13831382","79.199993664001","0.9","12","0.3","0.3323767","183km NNE of Cape Yakataga, Alaska","61.45","-140.6041","Alaska","27","1469625893000","2016-07-27 09:24:53","9","24","7","53","2016"
"nn00553442","131.99","1.6","39","10.0","0.146","68km ESE of Lakeview, Oregon","41.8767","-119.6278","Oregon","27","1469626135602","2016-07-27 09:28:55","9","28","7","55","2016"
"uw61172252","93.0","0.52","4","2.09","0.0514","21km E of Mount Hood Village, Oregon","45.3598333","-121.7006667","Oregon","27","1469626468280","2016-07-27 09:34:28","9","34","7","28","2016"
"us100069gp","64.0","4.5","312","10.0","16.716","South of Africa","-52.1331","27.7175","South of Africa","27","1469626490450","2016-07-27 09:34:50","9","34","7","50","2016"
"ci37640792","62.0","0.61","6","1.1","0.0006807","16km NE of Little Lake, CA","36.0255","-117.7645","California","27","1469626674260","2016-07-27 09:37:54","9","37","7","54","2016"
"ak13807238","100.799991936","0.4","2","21.9","0.02694946","21km SSW of Badger, Alaska","64.6281","-147.7578","Alaska","27","1469627048000","2016-07-27 09:44:08","9","44","7","8","2016"
"nc72667016","67.0","2.09","67","5.37","0.02263","20km SSE of Ridgemark, California","36.646","-121.2611667","California","27","1469627411500","2016-07-27 09:50:11","9","50","7","11","2016"
"nc72667021","52.0","1.16","21","1.42","0.006506","7km W of Cobb, California","38.8293333","-122.8135","California","27","1469627420490","2016-07-27 09:50:20","9","50","7","20","2016"
"us20006i31","129.0","3.6","199","28.02","0.352","43km NNE of Chernabura Island, Alaska","55.1608","-159.3778","Alaska","27","1469627464580","2016-07-27 09:51:04","9","51","7","4","2016"
"ci37640816","62.0","0.72","8","1.54","0.002016","16km NE of Little Lake, CA","36.0243333","-117.7675","California","27","1469628136130","2016-07-27 10:02:16","10","2","7","16","2016"
"ci37640824","106.0","0.96","14","1.56","0.00212","16km NE of Little Lake, CA","36.0273333","-117.7651667","California","27","1469628364580","2016-07-27 10:06:04","10","6","7","4","2016"
"us20006i32","85.0","4.3","284","60.16","2.169","37km SSE of Picota, Peru","-7.237","-76.2101","Peru","27","1469628393630","2016-07-27 10:06:33","10","6","7","33","2016"
"us100069gq","84.0","4.4","298","540.25","4.539","192km NE of Ndoi Island, Fiji","-19.3536","-177.4688","Fiji","27","1469629337280","2016-07-27 10:22:17","10","22","7","17","2016"
"ak13831385","104.399991648","1.2","22","1.5","0.3359699","79km WNW of Skagway, Alaska","59.7753","-136.57","Alaska","27","1469630286000","2016-07-27 10:38:06","10","38","7","6","2016"
"us20006i35","88.0","5.3","500","46.0","0.526","15km SE of Hitachi, Japan","36.4922","140.7568","Japan","27","1469630837010","2016-07-27 10:47:17","10","47","7","17","2016"
"nc72667036","164.0","1.11","19","1.66","0.0617","7km SSW of Kelseyville, California","38.9195","-122.8885","California","27","1469632774730","2016-07-27 11:19:34","11","19","7","34","2016"
"ak13807656","32.399997408","1.6","39","1.0","0.2811727","150km SE of McGrath, Alaska","62.1606","-153.2248","Alaska","27","1469633053000","2016-07-27 11:24:13","11","24","7","13","2016"
"nc72667046","307.0","0.65","6","0.66","0.1457","21km SSE of Mammoth Lakes, California","37.4673333","-118.8923333","California","27","1469633273970","2016-07-27 11:27:53","11","27","7","53","2016"
"us20006i3b","36.0","2.6","104","4.586","0.0","10km S of Langston, Oklahoma","35.8525","-97.2357","Oklahoma","27","1469633786100","2016-07-27 11:36:26","11","36","7","26","2016"
"ak13831387","262.799978976","2.2","74","4.6","0.943231","125km S of Unalaska, Alaska","52.7552","-166.7771","Alaska","27","1469633903000","2016-07-27 11:38:23","11","38","7","23","2016"
"ak13808047","208.799983296","3.0","138","2.2","2.171228","73km S of Point Hope, Alaska","67.6877","-166.7916","Alaska","27","1469634080000","2016-07-27 11:41:20","11","41","7","20","2016"
"ak13808051","53.99999568","1.2","22","65.7","0.1554085","59km SSE of Cantwell, Alaska","62.9393","-148.3064","Alaska","27","1469634538000","2016-07-27 11:48:58","11","48","7","58","2016"
"ak13831390","233.99998128","1.8","50","39.3","0.2784777","28km SE of Nikolski, Alaska","52.7361","-168.6086","Alaska","27","1469634674000","2016-07-27 11:51:14","11","51","7","14","2016"
"ak13831391","269.9999784","2.0","62","19.1","0.6521769","96km S of False Pass, Alaska","53.9955","-163.6187","Alaska","27","1469635111000","2016-07-27 11:58:31","11","58","7","31","2016"
"ak13808060","53.99999568","1.2","22","10.1","0.5093448","80km ENE of Cantwell, Alaska","63.5851","-147.3953","Alaska","27","1469635678000","2016-07-27 12:07:58","12","7","7","58","2016"
"ak13808062","104.399991648","0.5","4","11.2","0.1158827","112km WNW of Cantwell, Alaska","63.5873","-151.1715","Alaska","27","1469635834000","2016-07-27 12:10:34","12","10","7","34","2016"
"ak13808063","86.399993088","1.6","39","7.5","0.1060012","84km E of Cape Yakataga, Alaska","60.205","-140.9321","Alaska","27","1469635951000","2016-07-27 12:12:31","12","12","7","31","2016"
"nc72667051","62.0","1.56","37","2.24","0.007541","9km WNW of The Geysers, California","38.8226667","-122.8446667","California","27","1469636154730","2016-07-27 12:15:54","12","15","7","54","2016"
"ak13808065","43.199996544","1.2","22","10.4","0.1697816","43km E of Manley Hot Springs, Alaska","65.0745","-149.7254","Alaska","27","1469636206000","2016-07-27 12:16:46","12","16","7","46","2016"
"ci37640856","38.0","2.17","72","1.68","0.07799","20km ENE of Thermal, CA","33.7266667","-115.9446667","California","27","1469636254070","2016-07-27 12:17:34","12","17","7","34","2016"
"ak13808077","50.399995968","1.7","44","10.1","0.133849","113km W of Cantwell, Alaska","63.5137","-151.2119","Alaska","27","1469637213000","2016-07-27 12:33:33","12","33","7","33","2016"
"ci37640864","75.0","0.68","7","11.2","0.07319","15km ESE of Anza, CA","33.5185","-116.5193333","California","27","1469637946270","2016-07-27 12:45:46","12","45","7","46","2016"
"ak13831397","79.199993664001","1.4","30","97.0","0.1607984","58km WNW of Anchor Point, Alaska","59.9464","-152.8283","Alaska","27","1469638083000","2016-07-27 12:48:03","12","48","7","3","2016"
"ak13808084","68.399994528","0.4","2","21.9","0.07995006","13km WNW of North Nenana, Alaska","64.6442","-149.3513","Alaska","27","1469638120000","2016-07-27 12:48:40","12","48","7","40","2016"
"nc72667056","167.0","2.25","78","21.0","0.02659","22km S of San Joaquin, California","36.4063333","-120.2075","California","27","1469638494440","2016-07-27 12:54:54","12","54","7","54","2016"
"uw61172322","125.0","1.33","27","8.82","0.08469","14km S of Morton, Washington","46.433","-122.3106667","Washington","27","1469638858760","2016-07-27 13:00:58","13","0","7","58","2016"
"ak13808483","61.199995104","0.7","8","9.7","0.5362942","76km ENE of Cantwell, Alaska","63.6092","-147.5036","Alaska","27","1469639502000","2016-07-27 13:11:42","13","11","7","42","2016"
"us20006i5j","36.0","2.7","112","5.411","0.0","10km S of Langston, Oklahoma","35.8519","-97.2366","Oklahoma","27","1469639556200","2016-07-27 13:12:36","13","12","7","36","2016"
"ci37640896","19.0","2.03","64","13.68","0.0459","5km ENE of Cabazon, CA","33.9368333","-116.7363333","California","27","1469640132460","2016-07-27 13:22:12","13","22","7","12","2016"
"ak13808484","46.799996256","1.4","30","5.4","0.3512413","99km S of Coldfoot, Alaska","66.3658","-150.1971","Alaska","27","1469640216000","2016-07-27 13:23:36","13","23","7","36","2016"
"ci37640904","38.0","1.28","25","1.95","0.07724","21km ENE of Thermal, CA","33.7276667","-115.9425","California","27","1469640557520","2016-07-27 13:29:17","13","29","7","17","2016"
"ak13831401","237.599980992","1.6","39","37.5","0.3153087","32km SE of Nikolski, Alaska","52.7041","-168.5775","Alaska","27","1469640611000","2016-07-27 13:30:11","13","30","7","11","2016"
"ak13831402","68.399994528","2.1","68","133.9","0.595583","95km E of King Salmon, Alaska","58.8044","-155.0242","Alaska","27","1469640712000","2016-07-27 13:31:52","13","31","7","52","2016"
"ci37640936","149.0","0.71","8","16.17","0.1197","17km N of Borrego Springs, CA","33.4063333","-116.3943333","California","27","1469641403900","2016-07-27 13:43:23","13","43","7","23","2016"
"ci37640944","37.0","1.59","39","1.43","0.07916","21km ENE of Thermal, CA","33.7288333","-115.9443333","California","27","1469641621450","2016-07-27 13:47:01","13","47","7","1","2016"
"ak13808499","125.99998992","1.0","15","0.0","0.1365439","22km NNE of Badger, Alaska","64.9836","-147.3588","Alaska","27","1469642291000","2016-07-27 13:58:11","13","58","7","11","2016"
"ci37640960","23.0","2.62","107","4.17","0.1253","12km SSE of Big Bear City, CA","34.1613333","-116.8086667","California","27","1469642384910","2016-07-27 13:59:44","13","59","7","44","2016"
"ak13808896","107.99999136","0.8","10","7.4","0.512938","81km ENE of Cantwell, Alaska","63.5895","-147.3766","Alaska","27","1469642406000","2016-07-27 14:00:06","14","0","7","6","2016"
"ak13808898","50.399995968","1.6","39","53.2","0.2937491","51km W of Anchorage, Alaska","61.174","-150.8544","Alaska","27","1469642715000","2016-07-27 14:05:15","14","5","7","15","2016"
"uw61172332","108.0","1.62","40","18.01","0.09023","7km NW of Coupeville, Washington","48.2676667","-122.7643333","Washington","27","1469642851530","2016-07-27 14:07:31","14","7","7","31","2016"
"ak13831406","262.799978976","2.2","74","10.0","1.075283","140km S of Unalaska, Alaska","52.6252","-166.8396","Alaska","27","1469642868000","2016-07-27 14:07:48","14","7","7","48","2016"
"nn00553525","71.77","0.6","6","7.0","0.103","10km S of Mogul, Nevada","39.4179","-119.9274","Nevada","27","1469642987348","2016-07-27 14:09:47","14","9","7","47","2016"
"ak13808899","64.799994816","0.7","8","10.6","0.3629194","125km ENE of McGrath, Alaska","63.3396","-153.2587","Alaska","27","1469643501000","2016-07-27 14:18:21","14","18","7","21","2016"
"ak13808917","255.599979552","2.0","62","0.8","0.9252647","119km S of Unalaska, Alaska","52.8063","-166.7396","Alaska","27","1469644505000","2016-07-27 14:35:05","14","35","7","5","2016"
"ak13808919","161.99998704","1.3","26","2.2","0.06198375","107km NNW of Larsen Bay, Alaska","58.4749","-154.4359","Alaska","27","1469644785000","2016-07-27 14:39:45","14","39","7","45","2016"
"ak13808958","154.799987616","1.5","35","3.9","0.4374795","57km ESE of Whittier, Alaska","60.5164","-147.773","Alaska","27","1469645551000","2016-07-27 14:52:31","14","52","7","31","2016"
"ci37640976","73.0","0.4","2","14.55","0.06129","9km N of Anza, CA","33.6343333","-116.6635","California","27","1469645678970","2016-07-27 14:54:38","14","54","7","38","2016"
"ci37640992","66.0","1.59","39","-1.4","0.1113","11km SSW of Lucerne Valley, CA","34.3563333","-117.0238333","California","27","1469645867430","2016-07-27 14:57:47","14","57","7","47","2016"
"ak13831411","176.399985888","1.8","50","16.7","0.3584278","44km N of Chernabura Island, Alaska","55.1878","-159.5203","Alaska","27","1469646002000","2016-07-27 15:00:02","15","0","7","2","2016"
"mb80163444","88.0","2.94","135","-2.0","0.197","4km ENE of Butte, Montana","46.0183333","-112.4775","Montana","27","1469646126800","2016-07-27 15:02:06","15","2","7","6","2016"
"ak13831412","169.199986464","1.5","35","103.5","0.1221709","67km NW of Nikiski, Alaska","61.0793","-152.2331","Alaska","27","1469646500000","2016-07-27 15:08:20","15","8","7","20","2016"
"ak13808979","28.799997696","2.9","129","95.5","0.2542232","33km SE of Redoubt Volcano, Alaska","60.2799","-152.3027","Alaska","27","1469647555000","2016-07-27 15:25:55","15","25","7","55","2016"
"ci37641016","46.0","1.36","28","-0.55","0.04769","4km SE of Home Gardens, CA","33.8495","-117.4875","California","27","1469647952090","2016-07-27 15:32:32","15","32","7","32","2016"
"nc72667096","215.0","1.84","52","1.44","0.1657","24km WNW of San Simeon, California","35.7406667","-121.438","California","27","1469648297500","2016-07-27 15:38:17","15","38","7","17","2016"
"pr16209004","255.6","2.7","112","74.0","0.67463478","75km N of Culebra, Puerto Rico","18.9866","-65.2505","Puerto Rico","27","1469648334300","2016-07-27 15:38:54","15","38","7","54","2016"
"ak13831414","313.199974944","2.1","68","4.8","1.139064","142km S of Unalaska, Alaska","52.5918","-166.5903","Alaska","27","1469648613000","2016-07-27 15:43:33","15","43","7","33","2016"
"ci37641032","50.0","1.02","16","1.19","0.08604","21km ENE of Thermal, CA","33.7351667","-115.9486667","California","27","1469649205570","2016-07-27 15:53:25","15","53","7","25","2016"
"nc72667106","87.0","0.75","9","5.19","0.02757","12km SE of Mammoth Lakes, California","37.5753333","-118.8585","California","27","1469650673390","2016-07-27 16:17:53","16","17","7","53","2016"
"ak13831415","89.999992800001","1.4","30","72.7","0.3036306","68km W of Willow, Alaska","61.6867","-151.3328","Alaska","27","1469651428000","2016-07-27 16:30:28","16","30","7","28","2016"
"ci37641064","61.0","0.9","12","-1.01","0.06748","12km SE of Tehachapi, CA","35.0581667","-118.3453333","California","27","1469651787810","2016-07-27 16:36:27","16","36","7","27","2016"
"ak13809431","82.799993376001","1.0","15","0.3","0.2551215","23km WSW of Cantwell, Alaska","63.2885","-149.3678","Alaska","27","1469651837000","2016-07-27 16:37:17","16","37","7","17","2016"
"ak13831417","226.799981856","1.8","50","25.0","0.6836179","87km NE of Kodiak, Alaska","58.2784","-151.2473","Alaska","27","1469652428000","2016-07-27 16:47:08","16","47","7","8","2016"
"ak13809853","57.599995392","0.9","12","10.8","0.167985","15km NE of Coldfoot, Alaska","67.3656","-149.9578","Alaska","27","1469652554000","2016-07-27 16:49:14","16","49","7","14","2016"
"ak13809854","39.599996832","2.0","62","1.5","0.0530006","92km N of Redoubt Volcano, Alaska","61.3078","-152.4596","Alaska","27","1469652622000","2016-07-27 16:50:22","16","50","7","22","2016"
"ak13831420","215.99998272","1.6","39","4.7","0.05210229","93km N of Redoubt Volcano, Alaska","61.3199","-152.5167","Alaska","27","1469652661000","2016-07-27 16:51:01","16","51","7","1","2016"
"ak13831421","223.199982144","1.0","15","7.1","0.04401745","93km N of Redoubt Volcano, Alaska","61.3148","-152.5359","Alaska","27","1469652699000","2016-07-27 16:51:39","16","51","7","39","2016"
"ak13809857","61.199995104","1.4","30","3.0","0.03413598","91km NW of Nikiski, Alaska","61.2971","-152.4237","Alaska","27","1469652832000","2016-07-27 16:53:52","16","53","7","52","2016"
"ak13831423","226.799981856","1.8","50","47.0","0.2281721","22km SE of Nikolski, Alaska","52.7724","-168.6702","Alaska","27","1469653566000","2016-07-27 17:06:06","17","6","7","6","2016"
"ak13809859","57.599995392","1.3","26","25.1","0.6387022","76km E of Cantwell, Alaska","63.5041","-147.4457","Alaska","27","1469653758000","2016-07-27 17:09:18","17","9","7","18","2016"
"uw61172422","168.0","0.51","4","2.54","0.0169","33km S of Morton, Washington","46.2615","-122.2033333","Washington","27","1469654238640","2016-07-27 17:17:18","17","17","7","18","2016"
"ak13809862","97.199992224001","1.9","56","0.0","0.1859513","35km NNE of Whittier, Alaska","61.0448","-148.3254","Alaska","27","1469654870000","2016-07-27 17:27:50","17","27","7","50","2016"
"ak13809864","57.599995392","2.5","96","120.9","0.182358","80km ESE of Old Iliamna, Alaska","59.556","-153.5477","Alaska","27","1469655577000","2016-07-27 17:39:37","17","39","7","37","2016"
"ak13809870","79.199993664001","0.9","12","17.3","0.02694946","28km N of North Nenana, Alaska","64.8328","-149.0904","Alaska","27","1469655699000","2016-07-27 17:41:39","17","41","7","39","2016"
"uw61172437","235.0","1.03","16","-0.78","0.15","11km NE of Woodland, Washington","45.9655","-122.629","Washington","27","1469655810560","2016-07-27 17:43:30","17","43","7","30","2016"
"ak13809873","107.99999136","0.2","1","9.4","0.1527136","6km NE of North Pole, Alaska","64.7836","-147.2442","Alaska","27","1469656021000","2016-07-27 17:47:01","17","47","7","1","2016"
"uw61172452","69.0","1.49","34","16.7","0.2167","16km ESE of Soap Lake, Washington","47.355","-119.2785","Washington","27","1469656741250","2016-07-27 17:59:01","17","59","7","1","2016"
"uw61172457","159.0","0.99","15","6.51","0.04863","10km SE of Desert Aire, Washington","46.606","-119.8398333","Washington","27","1469656890850","2016-07-27 18:01:30","18","1","7","30","2016"
"ci37641112","147.0","0.68","7","15.88","0.05913","11km SE of Valle Vista, CA","33.6805","-116.8106667","California","27","1469657610790","2016-07-27 18:13:30","18","13","7","30","2016"
"ci37641120","61.0","1.15","20","-0.13","0.07043","44km NNW of Los Algodones, B.C., MX","33.0428333","-114.9765","Mexico","27","1469657727530","2016-07-27 18:15:27","18","15","7","27","2016"
"uw61172462","272.0","1.36","28","-0.6","0.1345","11km NW of West Longview, Washington","46.2443333","-123.1063333","Washington","27","1469657875540","2016-07-27 18:17:55","18","17","7","55","2016"
"ak13810299","32.399997408","1.7","44","27.8","0.1131877","38km ENE of Sutton-Alpine, Alaska","61.8735","-148.1367","Alaska","27","1469657930000","2016-07-27 18:18:50","18","18","7","50","2016"
"ci37641128","59.0","0.89","12","9.53","0.05766","24km ESE of Ridgecrest, CA","35.5331667","-117.4345","California","27","1469658007170","2016-07-27 18:20:07","18","20","7","7","2016"
"uw61172467","80.0","1.46","33","-0.85","0.07131","15km ESE of Cle Elum, Washington","47.1195","-120.7686667","Washington","27","1469658058530","2016-07-27 18:20:58","18","20","7","58","2016"
"us100069h3","134.0","4.2","271","114.7","3.705","43km N of Kainantu, Papua New Guinea","-5.9001","145.8818","Papua New Guinea","27","1469659120210","2016-07-27 18:38:40","18","38","7","40","2016"
"ak13831430","244.799980416","1.6","39","21.7","0.5425824","106km SSW of Unalaska, Alaska","53.0238","-167.2729","Alaska","27","1469659269000","2016-07-27 18:41:09","18","41","7","9","2016"
"ak13810305","107.99999136","1.0","15","14.9","0.1185776","50km S of Cantwell, Alaska","62.947","-148.7739","Alaska","27","1469659337000","2016-07-27 18:42:17","18","42","7","17","2016"
"uu60156892","67.0","1.24","24","5.77","0.02234","10km NW of West Yellowstone, Montana","44.7286667","-111.2005","Montana","27","1469659518790","2016-07-27 18:45:18","18","45","7","18","2016"
"ak13810729","183.599985312","1.7","44","0.0","0.2129007","108km NNW of Larsen Bay, Alaska","58.4159","-154.7655","Alaska","27","1469660492000","2016-07-27 19:01:32","19","1","7","32","2016"
"ak13810820","93.599992512001","0.9","12","10.2","0.6701432","79km ENE of Cantwell, Alaska","63.5541","-147.3938","Alaska","27","1469660771000","2016-07-27 19:06:11","19","6","7","11","2016"
"ak13810819","53.99999568","1.1","19","4.5","0.02155957","75km NW of Nikiski, Alaska","61.1827","-152.2379","Alaska","27","1469660787000","2016-07-27 19:06:27","19","6","7","27","2016"
"uw61172487","125.0","1.87","54","-0.15","0.06464","11km SW of Brewster, Washington","48.0113333","-119.8786667","Washington","27","1469661115960","2016-07-27 19:11:55","19","11","7","55","2016"
"uw61172492","210.0","1.94","58","-0.53","0.6023","3km SSW of Princeton, Canada","49.425","-120.523","Canada","27","1469661390220","2016-07-27 19:16:30","19","16","7","30","2016"
"nc72667156","242.0","2.5","96","19.98","0.1677","36km SSW of Ferndale, California","40.2971667","-124.5011667","California","27","1469661744910","2016-07-27 19:22:24","19","22","7","24","2016"
"us100067wm","58.0","4.6","326","10.0","1.19","31km SSE of Sary-Tash, Kyrgyzstan","39.4543","73.3421","Kyrgyzstan","27","1469662064850","2016-07-27 19:27:44","19","27","7","44","2016"
"ci37641144","58.0","1.82","51","-0.82","0.1042","5km NNW of Boron, CA","35.038","-117.6803333","California","27","1469662341520","2016-07-27 19:32:21","19","32","7","21","2016"
"nm60152891","48.0","1.88","54","11.98","0.04105","8km NNW of Dyersburg, Tennessee","36.1005","-89.426","Tennessee","27","1469662363810","2016-07-27 19:32:43","19","32","7","43","2016"
"ak13810828","154.799987616","0.7","8","9.2","0.1293574","8km E of Healy, Alaska","63.8442","-148.788","Alaska","27","1469662472000","2016-07-27 19:34:32","19","34","7","32","2016"
"ak13831436","176.399985888","2.1","68","47.7","0.4051402","44km S of Sand Point, Alaska","54.9465","-160.3859","Alaska","27","1469663001000","2016-07-27 19:43:21","19","43","7","21","2016"
"ak13810834","122.399990208","0.6","6","4.5","0.06378039","15km ENE of Eielson Air Force Base, Alaska","64.7299","-146.7726","Alaska","27","1469663468000","2016-07-27 19:51:08","19","51","7","8","2016"
"ci37641160","80.0","0.97","14","-0.5","0.02757","13km SSE of Home Gardens, CA","33.7748333","-117.4486667","California","27","1469663560370","2016-07-27 19:52:40","19","52","7","40","2016"
"us100067x9","92.0","4.8","354","21.49","2.033","83km NE of Hihifo, Tonga","-15.4456","-173.1647","Tonga","27","1469663777140","2016-07-27 19:56:17","19","56","7","17","2016"
"ci37641168","67.0","0.34","2","2.04","0.009406","16km E of Coso Junction, CA","36.0303333","-117.775","California","27","1469663995480","2016-07-27 19:59:55","19","59","7","55","2016"
"ak13811260","154.799987616","2.3","81","32.2","0.7896191","95km S of Chignik Lake, Alaska","55.4078","-158.4937","Alaska","27","1469664053000","2016-07-27 20:00:53","20","0","7","53","2016"
"nc72667176","65.0","0.93","13","1.5","0.01162","4km WNW of Cobb, California","38.8311653","-122.7736664","California","27","1469664164050","2016-07-27 20:02:44","20","2","7","44","2016"
"nc72667181","167.0","1.88","54","13.44","0.188","10km WNW of Big Pine, California","37.2006667","-118.4","California","27","1469664185570","2016-07-27 20:03:05","20","3","7","5","2016"
"ci37641176","27.0","1.64","41","9.84","0.08017","23km ESE of Anza, CA","33.449","-116.462","California","27","1469664318310","2016-07-27 20:05:18","20","5","7","18","2016"
"ak13832313","71.999994240001","2.0","62","68.5","0.6054645","131km ENE of Chignik Lake, Alaska","56.8766","-156.9522","Alaska","27","1469664426000","2016-07-27 20:07:06","20","7","7","6","2016"
"ak13811261","277.199977824","2.3","81","45.8","0.9279597","94km S of Atka, Alaska","51.3507","-174.284","Alaska","27","1469664504000","2016-07-27 20:08:24","20","8","7","24","2016"
"nm60152966","116.0","2.76","137","2.25","0.4965","4km NE of Dover, Arkansas","35.4215","-93.0776667","Arkansas","27","1469665179060","2016-07-27 20:19:39","20","19","7","39","2016"
"ci37641192","212.0","3.08","147","5.96","0.6951","149km SE of Estacion Coahuila, B.C., MX","31.1293333","-114.0478333","Mexico","27","1469665570950","2016-07-27 20:26:10","20","26","7","10","2016"
"ci37143356","92.0","0.65","6","2.03","0.05133","6km ENE of Coso Junction, CA","36.0583333","-117.879","California","27","1469665581010","2016-07-27 20:26:21","20","26","7","21","2016"
"ak13811269","46.799996256","1.4","30","3.5","0.3314783","137km SE of McGrath, Alaska","62.2068","-153.4684","Alaska","27","1469665866000","2016-07-27 20:31:06","20","31","7","6","2016"
"us100067xj","149.0","4.3","284","27.62","0.305","48km WNW of Ovalle, Chile","-30.3675","-71.6354","Chile","27","1469666060660","2016-07-27 20:34:20","20","34","7","20","2016"
"ak13811271","82.799993376001","0.6","6","20.4","0.2659013","51km SW of North Nenana, Alaska","64.2608","-149.8759","Alaska","27","1469666088000","2016-07-27 20:34:48","20","34","7","48","2016"
"us100069hu","124.0","4.3","284","76.01","1.686","88km ESE of Taron, Papua New Guinea","-4.8885","153.7064","Papua New Guinea","27","1469666088380","2016-07-27 20:34:48","20","34","7","48","2016"
"ci37641200","110.0","0.62","6","4.35","0.09109","5km NW of Banning, CA","33.9611667","-116.9105","California","27","1469666131690","2016-07-27 20:35:31","20","35","7","31","2016"
"us100069i2","176.0","4.4","298","599.55","8.139","South of the Fiji Islands","-25.9135","178.4949","South of the Fiji Islands","27","1469666202670","2016-07-27 20:36:42","20","36","7","42","2016"
"nc71104639","334.0","0.68","7","6.89","0.06007","22km SW of Gustine, California","37.1026667","-121.154","California","27","1469666406160","2016-07-27 20:40:06","20","40","7","6","2016"
"us10006bs3","269.0","3.1","148","25.3","2.056","190km SSW of Buldir Island, Alaska","50.7456","174.994","Alaska","27","1469667787000","2016-07-27 21:03:07","21","3","7","7","2016"
"ak13832318","118.799990496","1.2","22","76.0","0.2632064","27km WNW of Anchor Point, Alaska","59.8913","-152.2587","Alaska","27","1469668018000","2016-07-27 21:06:58","21","6","7","58","2016"
"ak13832319","82.799993376001","1.5","35","44.4","0.247935","4km SSE of Sterling, Alaska","60.4989","-150.7259","Alaska","27","1469668025000","2016-07-27 21:07:05","21","7","7","5","2016"
"ci37641208","109.0","0.74","8","15.6","0.05845","12km SSW of Idyllwild, CA","33.6505","-116.7821667","California","27","1469668228130","2016-07-27 21:10:28","21","10","7","28","2016"
"nc72667201","113.0","0.23","1","2.17","0.008497","6km NW of The Geysers, California","38.8168333","-122.817","California","27","1469668309790","2016-07-27 21:11:49","21","11","7","49","2016"
"nn00553602","156.91","0.4","2","12.5","0.193","19km NW of Hawthorne, Nevada","38.6668","-118.7643","Nevada","27","1469668807032","2016-07-27 21:20:07","21","20","7","7","2016"
"ak13811707","104.399991648","1.6","39","7.6","0.08983153","80km E of Cape Yakataga, Alaska","60.1265","-140.9892","Alaska","27","1469668994000","2016-07-27 21:23:14","21","23","7","14","2016"
"nc71104644","312.0","0.49","4","2.7","0.04464","27km NE of Hollister, California","37.0341667","-121.1968333","California","27","1469669643550","2016-07-27 21:34:03","21","34","7","3","2016"
"hv61355286","267.0","1.76","48","33.915","0.1203","21km SSW of Leilani Estates, Hawaii","19.2946667","-155.0171667","Hawaii","27","1469669972980","2016-07-27 21:39:32","21","39","7","32","2016"
"ak13811717","107.99999136","1.3","26","13.6","0.4195132","112km WNW of Haines Junction, Canada","61.2486","-139.3301","Canada","27","1469670014000","2016-07-27 21:40:14","21","40","7","14","2016"
"pr16210000","288.0","2.8","121","43.0","0.63331228","55km N of Hatillo, Puerto Rico","18.9834","-66.7925","Puerto Rico","27","1469670090800","2016-07-27 21:41:30","21","41","7","30","2016"
"us100067xv","0.0","3.7","211","7.5","0.0","107km WNW of Haines Junction, Canada","61.2297","-139.2366","Canada","27","1469670137000","2016-07-27 21:42:17","21","42","7","17","2016"
"nc72667211","230.0","0.99","15","-0.12","0.05734","11km SSE of Mammoth Lakes, California","37.555","-118.9075","California","27","1469671109050","2016-07-27 21:58:29","21","58","7","29","2016"
"ci37641224","53.0","1.25","24","12.95","0.07064","7km SSE of Loma Linda, CA","33.9906667","-117.2443333","California","27","1469671126630","2016-07-27 21:58:46","21","58","7","46","2016"
"ci37641232","147.0","0.71","8","16.36","0.04424","8km SE of Idyllwild, CA","33.6855","-116.6713333","California","27","1469671339500","2016-07-27 22:02:19","22","2","7","19","2016"
"ak13812167","89.999992800001","0.2","1","15.0","0.06557702","30km N of North Nenana, Alaska","64.8504","-149.0505","Alaska","27","1469671518000","2016-07-27 22:05:18","22","5","7","18","2016"
"nn00553550","60.83","1.7","44","9.5","0.188","30km SSW of Hawthorne, Nevada","38.2658","-118.7435","Nevada","27","1469671574714","2016-07-27 22:06:14","22","6","7","14","2016"
"ak13832324","93.599992512001","1.2","22","59.6","0.2757828","20km NNE of Anchor Point, Alaska","59.9332","-151.6507","Alaska","27","1469671653000","2016-07-27 22:07:33","22","7","7","33","2016"
"ak13832325","219.599982432","1.9","56","20.9","0.6431937","11km SSW of Amatignak Island, Alaska","51.1638","-179.1618","Alaska","27","1469671664000","2016-07-27 22:07:44","22","7","7","44","2016"
"ak13832326","57.599995392","1.7","44","114.0","0.05569555","79km W of Anchor Point, Alaska","59.7084","-153.2323","Alaska","27","1469672074000","2016-07-27 22:14:34","22","14","7","34","2016"
"ci37641240","49.0","1.74","47","9.34","0.009231","20km SSW of La Quinta, CA","33.5145","-116.4226667","California","27","1469672369090","2016-07-27 22:19:29","22","19","7","29","2016"
"mb80163534","197.0","2.02","63","5.0","1.188","30km NNE of Cut Bank, Montana","48.8751667","-112.1306667","Montana","27","1469672400310","2016-07-27 22:20:00","22","20","7","0","2016"
"ak13832327","237.599980992","1.8","50","24.4","0.7366185","86km SSE of Unalaska, Alaska","53.2254","-165.8291","Alaska","27","1469672612000","2016-07-27 22:23:32","22","23","7","32","2016"
"nc72667221","116.0","0.58","5","1.34","0.008377","2km E of The Geysers, California","38.7796669","-122.7241669","California","27","1469672668070","2016-07-27 22:24:28","22","24","7","28","2016"
"ak13832328","212.399983008","1.9","56","0.0","0.9576041","70km WNW of Gustavus, Alaska","58.5396","-136.9227","Alaska","27","1469672780000","2016-07-27 22:26:20","22","26","7","20","2016"
"ak13812182","50.399995968","1.6","39","79.2","0.313512","42km W of Talkeetna, Alaska","62.3426","-150.9251","Alaska","27","1469673578000","2016-07-27 22:39:38","22","39","7","38","2016"
"ak13832330","244.799980416","2.1","68","3.5","0.9081968","119km S of Unalaska, Alaska","52.8095","-166.7744","Alaska","27","1469674166000","2016-07-27 22:49:26","22","49","7","26","2016"
"nc72667246","291.0","0.57","5","3.65","0.1008","16km S of Mammoth Lakes, California","37.5061667","-119.0055","California","27","1469674366750","2016-07-27 22:52:46","22","52","7","46","2016"
"ci37641256","153.0","0.42","3","10.66","0.03859","15km ESE of Anza, CA","33.5196667","-116.5213333","California","27","1469674911280","2016-07-27 23:01:51","23","1","7","51","2016"
"ak13832331","97.199992224001","1.5","35","46.9","0.2353586","101km NNW of Kodiak, Alaska","58.6771","-152.8279","Alaska","27","1469675947000","2016-07-27 23:19:07","23","19","7","7","2016"
"nn00553605","283.84","0.2","1","14.5","0.356","38km SSE of Goldfield, Nevada","37.4176","-117.0073","Nevada","27","1469676160575","2016-07-27 23:22:40","23","22","7","40","2016"
"ak13812185","233.99998128","1.8","50","25.6","0.3233935","56km SSE of Little Sitkin Island, Alaska","51.4712","178.8021","Alaska","27","1469676417000","2016-07-27 23:26:57","23","26","7","57","2016"
"nn00553553","228.31","1.4","30","0.0","0.224","31km NW of Searchlight, Nevada","35.6923","-115.1236","Nevada","27","1469676623431","2016-07-27 23:30:23","23","30","7","23","2016"
"ci37641264","41.0","1.13","20","3.92","0.1495","24km N of California City, CA","35.3395","-118.006","California","27","1469677184400","2016-07-27 23:39:44","23","39","7","44","2016"
"nc71104649","313.0","0.5","4","2.98","0.04592","27km NE of Hollister, California","37.033","-121.1961667","California","27","1469677254820","2016-07-27 23:40:54","23","40","7","54","2016"
"uw61172567","169.0","0.24","1","12.1","0.02842","25km SSE of Buckley, Washington","46.9391667","-121.9333333","Washington","27","1469677278860","2016-07-27 23:41:18","23","41","7","18","2016"
"ci37641272","78.0","0.65","6","11.46","0.04485","15km ESE of Anza, CA","33.5131667","-116.522","California","27","1469677381260","2016-07-27 23:43:01","23","43","7","1","2016"
"nc72667256","92.0","0.91","13","2.58","0.006233","3km WNW of The Geysers, California","38.7965012","-122.7946701","California","27","1469677389300","2016-07-27 23:43:09","23","43","7","9","2016"
"ci37641280","70.0","0.93","13","4.75","0.01824","3km W of Borrego Springs, CA","33.2523333","-116.4063333","California","27","1469677441570","2016-07-27 23:44:01","23","44","7","1","2016"
"nc72667261","136.0","0.94","14","3.15","0.008763","4km WNW of The Geysers, California","38.7944984","-122.7990036","California","27","1469677469090","2016-07-27 23:44:29","23","44","7","29","2016"
"hv61355426","78.0","1.54","36","12.277","0.1515","17km WNW of Mountain View, Hawaii","19.612","-155.2628333","Hawaii","27","1469677567180","2016-07-27 23:46:07","23","46","7","7","2016"
"ak13812632","50.399995968","1.4","30","3.0","0.5030566","82km NW of Talkeetna, Alaska","62.9088","-151.0824","Alaska","27","1469677813000","2016-07-27 23:50:13","23","50","7","13","2016"
"nc72667266","74.0","0.92","13","1.47","0.009427","4km W of Cobb, California","38.8226662","-122.7796631","California","27","1469678270680","2016-07-27 23:57:50","23","57","7","50","2016"
"ak13832335","93.599992512001","0.8","10","10.7","0.3072238","98km NW of Redoubt Volcano, Alaska","61.0653","-154.1183","Alaska","27","1469678387000","2016-07-27 23:59:47","23","59","7","47","2016"
"ak13832336","115.199990784","1.7","44","89.9","0.4365812","97km WNW of Larsen Bay, Alaska","57.7013","-155.5783","Alaska","28","1469678421000","2016-07-28 00:00:21","0","0","7","21","2016"
"hv61355456","153.0","2.12","69","32.66","0.03848","6km E of Pahala, Hawaii","19.2019997","-155.4136658","Hawaii","28","1469678542400","2016-07-28 00:02:22","0","2","7","22","2016"
"nc72667276","60.0","0.35","2","4.43","0.02393","3km ESE of Mammoth Lakes, California","37.6411667","-118.9305","California","28","1469679398810","2016-07-28 00:16:38","0","16","7","38","2016"
"ak13812636","68.399994528","1.1","19","0.9","0.4258014","56km E of Cantwell, Alaska","63.4517","-147.824","Alaska","28","1469679679000","2016-07-28 00:21:19","0","21","7","19","2016"
"nn00553562","223.12","1.1","19","9.7","0.143","68km ESE of Lakeview, Oregon","41.8584","-119.6533","Oregon","28","1469679684806","2016-07-28 00:21:24","0","21","7","24","2016"
"nn00553567","97.18","0.9","12","7.4","0.062","22km WSW of Enterprise, Utah","37.471","-113.9345","Utah","28","1469679785035","2016-07-28 00:23:05","0","23","7","5","2016"
"ci37641296","109.0","0.84","11","0.08","0.08505","20km ENE of Thermal, CA","33.7345","-115.9526667","California","28","1469679966590","2016-07-28 00:26:06","0","26","7","6","2016"
"nn00553557","120.88","2.1","68","10.4","0.148","68km ESE of Lakeview, Oregon","41.8477","-119.658","Oregon","28","1469680609336","2016-07-28 00:36:49","0","36","7","49","2016"
"ak13812639","129.599989632","0.4","2","20.0","0.1365439","19km SE of Salcha, Alaska","64.3928","-146.6322","Alaska","28","1469680969000","2016-07-28 00:42:49","0","42","7","49","2016"
"ak13812640","32.399997408","1.6","39","75.3","0.182358","68km NNW of Nikiski, Alaska","61.2858","-151.6304","Alaska","28","1469681055000","2016-07-28 00:44:15","0","44","7","15","2016"
"nc72667296","116.0","1.13","20","7.23","0.05115","25km NE of Soledad, California","36.5923333","-121.1303333","California","28","1469682054430","2016-07-28 01:00:54","1","0","7","54","2016"
"pr16210001","338.4","2.1","68","8.0","0.80938207","74km NNE of Road Town, British Virgin Islands","19.0373","-64.3435","British Virgin Islands","28","1469682239400","2016-07-28 01:03:59","1","3","7","59","2016"
"nc72667306","54.0","1.18","21","6.88","0.04253","14km S of Lake Nacimiento, California","35.5948333","-120.8835","California","28","1469683075080","2016-07-28 01:17:55","1","17","7","55","2016"
"ak13812641","57.599995392","1.6","39","19.3","0.2667996","73km S of Manley Hot Springs, Alaska","64.3436","-150.7385","Alaska","28","1469683442000","2016-07-28 01:24:02","1","24","7","2","2016"
"nc72667311","122.0","1.2","22","1.25","0.1319","18km S of Mammoth Lakes, California","37.4793333","-118.9851667","California","28","1469683638570","2016-07-28 01:27:18","1","27","7","18","2016"
"ak13812646","104.399991648","1.7","44","19.6","0.5731252","68km SE of Whittier, Alaska","60.3553","-147.7705","Alaska","28","1469683850000","2016-07-28 01:30:50","1","30","7","50","2016"
"nc72667316","101.0","1.85","53","0.56","0.169","30km SSW of Chester, California","40.0425","-121.3488333","California","28","1469684701590","2016-07-28 01:45:01","1","45","7","1","2016"
"ci37641392","26.0","2.05","65","10.82","0.0473","14km ESE of Anza, CA","33.5101667","-116.5275","California","28","1469684789400","2016-07-28 01:46:29","1","46","7","29","2016"
"ak13832343","57.599995392","1.1","19","123.3","0.3117154","37km WSW of Healy, Alaska","63.7026","-149.6378","Alaska","28","1469684903000","2016-07-28 01:48:23","1","48","7","23","2016"
"ci37641400","131.0","0.35","2","10.91","0.04202","15km ESE of Anza, CA","33.5173333","-116.5158333","California","28","1469685141360","2016-07-28 01:52:21","1","52","7","21","2016"
"ak13812648","57.599995392","1.9","56","104.8","0.1832563","65km W of Anchor Point, Alaska","59.7964","-153.0051","Alaska","28","1469685345000","2016-07-28 01:55:45","1","55","7","45","2016"
"ci37641408","79.0","1.16","21","9.71","0.154","23km ESE of Julian, CA","33.038","-116.3626667","California","28","1469685391530","2016-07-28 01:56:31","1","56","7","31","2016"
"nn00553580","225.37","1.1","19","7.3","0.156","69km ESE of Lakeview, Oregon","41.8456","-119.6456","Oregon","28","1469685428245","2016-07-28 01:57:08","1","57","7","8","2016"
"ak13832345","233.99998128","1.7","44","63.3","0.3422581","35km SW of Nikolski, Alaska","52.684","-169.1817","Alaska","28","1469685717000","2016-07-28 02:01:57","2","1","7","57","2016"
"us100067z6","56.0","4.2","271","10.0","1.639","9km SW of Sokhumi, Georgia","42.9566","40.8998","Georgia","28","1469685915610","2016-07-28 02:05:15","2","5","7","15","2016"
"ci37641432","35.0","1.23","23","9.64","0.1314","6km NW of Aguanga, CA","33.4871667","-116.9063333","California","28","1469686163700","2016-07-28 02:09:23","2","9","7","23","2016"
"nc72667336","81.0","1.02","16","2.09","0.01182","5km W of Cobb, California","38.8190002","-122.7898331","California","28","1469686351390","2016-07-28 02:12:31","2","12","7","31","2016"
"pr16210002","190.8","2.2","74","43.0","0.06557702","9km WNW of Charlotte Amalie, U.S. Virgin Islands","18.3605","-65.022","U.S. Virgin Islands","28","1469686389300","2016-07-28 02:13:09","2","13","7","9","2016"
"nc72667341","40.0","1.36","28","3.22","0.009996","5km W of Cobb, California","38.819","-122.7911667","California","28","1469686933480","2016-07-28 02:22:13","2","22","7","13","2016"
"ak13813096","104.399991648","0.5","4","3.2","0.2443418","26km SSE of Cantwell, Alaska","63.1628","-148.782","Alaska","28","1469687611000","2016-07-28 02:33:31","2","33","7","31","2016"
"uw61172602","111.0","1.1","19","-1.08","0.02036","28km NNW of Packwood, Washington","46.8546667","-121.7503333","Washington","28","1469688180040","2016-07-28 02:43:00","2","43","7","0","2016"
"nc72667356","89.0","2.56","102","-1.58","0.3667","24km SSW of Gardnerville Ranchos, Nevada","38.6791667","-119.8236667","Nevada","28","1469688601850","2016-07-28 02:50:01","2","50","7","1","2016"
"pr16210003","241.2","1.5","35","13.0","0.20481588","12km SSW of Tallaboa, Puerto Rico","17.892","-66.7545","Puerto Rico","28","1469689182100","2016-07-28 02:59:42","2","59","7","42","2016"
"pr16210004","338.4","2.4","89","48.0","0.83992479","78km NNE of Road Town, British Virgin Islands","19.0774","-64.355","British Virgin Islands","28","1469689482700","2016-07-28 03:04:42","3","4","7","42","2016"
"nc72667361","74.0","0.87","12","1.59","0.006523","9km WNW of Cobb, California","38.8400002","-122.8273315","California","28","1469689532290","2016-07-28 03:05:32","3","5","7","32","2016"
"nc72667366","130.0","0.47","3","2.76","0.01078","11km ESE of Mammoth Lakes, California","37.6208333","-118.8428333","California","28","1469689785470","2016-07-28 03:09:45","3","9","7","45","2016"
"pr16210005","349.2","2.1","68","9.0","0.9522142","106km ENE of Road Town, British Virgin Islands","18.9195","-63.7612","British Virgin Islands","28","1469689963500","2016-07-28 03:12:43","3","12","7","43","2016"
"ci37641448","98.0","0.7","8","1.41","0.001856","16km NE of Little Lake, CA","36.026","-117.7673333","California","28","1469690098290","2016-07-28 03:14:58","3","14","7","58","2016"
"ak13832348","165.599986752","1.4","30","4.7","0.612651","72km SE of Whittier, Alaska","60.3183","-147.7357","Alaska","28","1469690921000","2016-07-28 03:28:41","3","28","7","41","2016"
"ak13813553","89.999992800001","0.4","2","13.8","0.2533249","24km ENE of Manley Hot Springs, Alaska","65.1005","-150.1644","Alaska","28","1469691268000","2016-07-28 03:34:28","3","34","7","28","2016"
"mb80163559","125.0","0.85","11","11.92","0.073","53km W of West Yellowstone, Montana","44.7338333","-111.7683333","Montana","28","1469691438320","2016-07-28 03:37:18","3","37","7","18","2016"
"ak13832350","115.199990784","1.1","19","38.0","0.1787647","33km NE of Sutton-Alpine, Alaska","61.9854","-148.3597","Alaska","28","1469691469000","2016-07-28 03:37:49","3","37","7","49","2016"
"ak13832351","273.599978112","2.1","68","56.7","0.4347846","48km SSW of Little Sitkin Island, Alaska","51.5273","178.3063","Alaska","28","1469691708000","2016-07-28 03:41:48","3","41","7","48","2016"
"nn00553578","263.42","1.0","15","6.1","0.36","21km SSW of Gardnerville Ranchos, Nevada","38.6982","-119.8061","Nevada","28","1469692212808","2016-07-28 03:50:12","3","50","7","12","2016"
"ak13813554","25.199997984","1.3","26","120.6","0.1976294","78km W of Cantwell, Alaska","63.2754","-150.4978","Alaska","28","1469693690000","2016-07-28 04:14:50","4","14","7","50","2016"
"nc72667391","99.0","0.25","1","6.98","0.01436","8km ESE of Mammoth Lakes, California","37.6216667","-118.8856667","California","28","1469693694810","2016-07-28 04:14:54","4","14","7","54","2016"
"mb80164349","138.0","1.4","30","6.03","0.382","23km WNW of Challis, Idaho","44.5528333","-114.5161667","Idaho","28","1469694816720","2016-07-28 04:33:36","4","33","7","36","2016"
"ak13813556","43.199996544","1.2","22","8.4","0.3566312","108km NW of Talkeetna, Alaska","63.0633","-151.494","Alaska","28","1469694865000","2016-07-28 04:34:25","4","34","7","25","2016"
"ci37641472","96.0","0.35","2","12.37","0.03986","3km NNE of Murrieta Hot Springs, CA","33.5853333","-117.151","California","28","1469695103720","2016-07-28 04:38:23","4","38","7","23","2016"
"ak13813558","53.99999568","1.7","44","4.5","0.04581408","92km NW of Nikiski, Alaska","61.3091","-152.4285","Alaska","28","1469695195000","2016-07-28 04:39:55","4","39","7","55","2016"
"ak13813560","82.799993376001","1.1","19","1.4","0.03862756","91km N of Redoubt Volcano, Alaska","61.2911","-152.4551","Alaska","28","1469695302000","2016-07-28 04:41:42","4","41","7","42","2016"
"ak13832356","151.199987904","1.8","50","78.4","0.2946474","40km SSE of Semisopochnoi Island, Alaska","51.6467","179.9092","Alaska","28","1469695334000","2016-07-28 04:42:14","4","42","7","14","2016"
"ak13813561","39.599996832","2.1","68","1.0","0.04311913","92km NW of Nikiski, Alaska","61.2991","-152.4507","Alaska","28","1469695531000","2016-07-28 04:45:31","4","45","7","31","2016"
"ak13814022","28.799997696","1.5","35","81.6","0.4347846","59km WNW of Talkeetna, Alaska","62.5478","-151.1535","Alaska","28","1469695870000","2016-07-28 04:51:10","4","51","7","10","2016"
"nn00553617","245.02","1.0","15","4.1","0.337","13km SSW of Smith Valley, Nevada","38.6667","-119.3803","Nevada","28","1469696128045","2016-07-28 04:55:28","4","55","7","28","2016"
"nn00553571","106.8","0.9","12","12.2","0.365","22km SSW of Gardnerville Ranchos, Nevada","38.6894","-119.8113","Nevada","28","1469696357999","2016-07-28 04:59:17","4","59","7","17","2016"
"ci37641480","234.0","0.52","4","2.75","0.09068","4km WSW of Little Lake, CA","35.9258333","-117.9498333","California","28","1469696712910","2016-07-28 05:05:12","5","5","7","12","2016"
"ak13814025","35.99999712","1.9","56","6.6","0.1077978","36km ESE of Sutton-Alpine, Alaska","61.7265","-148.1789","Alaska","28","1469696852000","2016-07-28 05:07:32","5","7","7","32","2016"
"ak13832360","115.199990784","1.6","39","60.3","0.4410728","88km SW of Homer, Alaska","59.0436","-152.5599","Alaska","28","1469697543000","2016-07-28 05:19:03","5","19","7","3","2016"
"ak13814029","46.799996256","1.1","19","115.5","0.2596131","16km NNE of Healy, Alaska","63.9852","-148.8097","Alaska","28","1469697704000","2016-07-28 05:21:44","5","21","7","44","2016"
"nn00553581","225.84","1.0","15","6.8","0.16","69km ESE of Lakeview, Oregon","41.8432","-119.6405","Oregon","28","1469697832899","2016-07-28 05:23:52","5","23","7","52","2016"
"uu60156932","137.0","0.74","8","3.2","0.2599","16km ESE of Castle Dale, Utah","39.1285","-110.8571667","Utah","28","1469697924600","2016-07-28 05:25:24","5","25","7","24","2016"
"nc72667421","239.0","0.61","6","2.95","0.1319","22km SSE of Mammoth Lakes, California","37.4613333","-118.8668333","California","28","1469698402660","2016-07-28 05:33:22","5","33","7","22","2016"
"ak13832363","53.99999568","1.6","39","96.5","0.1284591","59km WNW of Anchor Point, Alaska","59.9198","-152.8465","Alaska","28","1469698508000","2016-07-28 05:35:08","5","35","7","8","2016"
"nn00553583","224.94","1.1","19","7.5","0.152","68km ESE of Lakeview, Oregon","41.8476","-119.6516","Oregon","28","1469699017210","2016-07-28 05:43:37","5","43","7","37","2016"
"uu60156942","75.0","1.33","27","6.69","0.0747","13km NNE of Old Faithful Geyser, Wyoming","44.5753333","-110.7636667","Wyoming","28","1469699107580","2016-07-28 05:45:07","5","45","7","7","2016"
"nn00553584","224.34","0.9","12","8.4","0.151","68km ESE of Lakeview, Oregon","41.8519","-119.6461","Oregon","28","1469699126272","2016-07-28 05:45:26","5","45","7","26","2016"
"ak13814032","151.199987904","0.6","6","5.0","0.2892575","109km W of Cantwell, Alaska","63.2775","-151.1246","Alaska","28","1469699206000","2016-07-28 05:46:46","5","46","7","46","2016"
"nc72667426","317.0","0.84","11","13.55","0.1172","21km SE of Mammoth Lakes, California","37.5115","-118.8035","California","28","1469699319960","2016-07-28 05:48:39","5","48","7","39","2016"
"uu60156947","52.0","1.8","50","2.39","0.2584","17km ESE of Castle Dale, Utah","39.1273333","-110.8553333","Utah","28","1469699450270","2016-07-28 05:50:50","5","50","7","50","2016"
"pr16210006","327.6","2.9","129","57.0","1.40855837","144km N of Road Town, British Virgin Islands","19.7007","-64.3908","British Virgin Islands","28","1469699519900","2016-07-28 05:51:59","5","51","7","59","2016"
"ak13814033","50.399995968","0.9","12","10.3","0.282071","109km W of Cantwell, Alaska","63.2834","-151.1174","Alaska","28","1469699563000","2016-07-28 05:52:43","5","52","7","43","2016"
"ak13814034","259.199979264","2.9","129","32.4","2.060735","193km S of Buldir Island, Alaska","50.6235","175.9801","Alaska","28","1469700086000","2016-07-28 06:01:26","6","1","7","26","2016"
"nn00553585","121.41","1.2","22","8.4","0.151","68km ESE of Lakeview, Oregon","41.851","-119.6477","Oregon","28","1469700749380","2016-07-28 06:12:29","6","12","7","29","2016"
"ak13832367","223.199982144","2.6","104","34.5","0.8516029","59km S of Yunaska Island, Alaska","52.0942","-170.6218","Alaska","28","1469700960000","2016-07-28 06:16:00","6","16","7","0","2016"
"ci37641504","79.0","1.23","23","15.8","0.09388","15km NE of Ojai, CA","34.5281667","-119.1096667","California","28","1469701294460","2016-07-28 06:21:34","6","21","7","34","2016"
"nc72667451","124.0","1.02","16","10.13","0.04183","25km SE of Mammoth Lakes, California","37.4853333","-118.7741667","California","28","1469702121430","2016-07-28 06:35:21","6","35","7","21","2016"
"ak13814035","97.199992224001","0.6","6","11.1","0.08174669","9km N of Cantwell, Alaska","63.4764","-148.9546","Alaska","28","1469702358000","2016-07-28 06:39:18","6","39","7","18","2016"
"ak13832369","194.399984448","1.1","19","13.1","0.3763941","70km SW of Unalaska, Alaska","53.4178","-167.2798","Alaska","28","1469702368000","2016-07-28 06:39:28","6","39","7","28","2016"
"ci37641512","62.0","0.83","11","16.06","0.09131","4km SE of Loma Linda, CA","34.0271667","-117.2266667","California","28","1469703016260","2016-07-28 06:50:16","6","50","7","16","2016"
"ci37641520","54.0","0.92","13","16.51","0.06774","9km SW of Idyllwild, CA","33.6875","-116.7903333","California","28","1469703484450","2016-07-28 06:58:04","6","58","7","4","2016"
"nc72667456","43.0","1.38","29","1.56","0.005541","2km E of The Geysers, California","38.7765","-122.723","California","28","1469703628220","2016-07-28 07:00:28","7","0","7","28","2016"
"ak13814036","262.799978976","1.9","56","13.2","1.035758","131km S of Unalaska, Alaska","52.6934","-166.6619","Alaska","28","1469703949000","2016-07-28 07:05:49","7","5","7","49","2016"
"ak13814038","176.399985888","1.1","19","8.4","0.6629567","143km ENE of Arctic Village, Alaska","68.7606","-142.5006","Alaska","28","1469704370000","2016-07-28 07:12:50","7","12","7","50","2016"
"ak13832372","97.199992224001","1.2","22","85.6","0.1158827","35km SSE of Redoubt Volcano, Alaska","60.1849","-152.5171","Alaska","28","1469704577000","2016-07-28 07:16:17","7","16","7","17","2016"
"nn00553586","144.42","1.0","15","10.3","0.117","28km SSE of Lakeview, Oregon","41.9676","-120.1726","Oregon","28","1469704705860","2016-07-28 07:18:25","7","18","7","25","2016"
"hv61355866","97.0","1.47","33","2.862","0.02454","26km E of Honaunau-Napoopoo, Hawaii","19.4283333","-155.6106667","Hawaii","28","1469704781500","2016-07-28 07:19:41","7","19","7","41","2016"
"ak13814039","57.599995392","2.1","68","20.4","0.08713658","25km WSW of Valdez, Alaska","61.0262","-146.7663","Alaska","28","1469704839000","2016-07-28 07:20:39","7","20","7","39","2016"
"uw61172647","130.0","0.5","4","17.68","0.1328","19km ESE of Buckley, Washington","47.0706667","-121.8106667","Washington","28","1469704986540","2016-07-28 07:23:06","7","23","7","6","2016"
"nc72667461","85.0","0.88","12","2.14","0.01262","2km NW of The Geysers, California","38.7943344","-122.7718353","California","28","1469705083880","2016-07-28 07:24:43","7","24","7","43","2016"
"nc72667471","166.0","1.06","17","-0.2","0.02182","4km SE of The Geysers, California","38.7518349","-122.7226639","California","28","1469705178080","2016-07-28 07:26:18","7","26","7","18","2016"
"ak13832374","97.199992224001","1.4","30","83.7","0.1814597","50km WNW of Anchor Point, Alaska","59.9036","-152.7005","Alaska","28","1469705626000","2016-07-28 07:33:46","7","33","7","46","2016"
"ak13814043","50.399995968","1.2","22","7.0","0.5371925","54km NNE of Nikiski, Alaska","61.1471","-150.9438","Alaska","28","1469705863000","2016-07-28 07:37:43","7","37","7","43","2016"
"pr16210007","288.0","2.6","104","25.0","1.29447232","143km NNE of Vieques, Puerto Rico","19.6149","-65.2881","Puerto Rico","28","1469705969500","2016-07-28 07:39:29","7","39","7","29","2016"
"pr16210008","291.6","2.2","74","13.0","0.04491576","5km SE of Road Town, British Virgin Islands","18.3805","-64.5873","British Virgin Islands","28","1469707057700","2016-07-28 07:57:37","7","57","7","37","2016"
"ci37641528","73.0","0.68","7","17.48","0.1065","6km NE of Cabazon, CA","33.9483333","-116.7331667","California","28","1469707111040","2016-07-28 07:58:31","7","58","7","31","2016"
"ak13814044","97.199992224001","1.6","39","0.0","0.25063","35km N of Whittier, Alaska","61.0838","-148.5622","Alaska","28","1469707126000","2016-07-28 07:58:46","7","58","7","46","2016"
"ak13832377","129.599989632","1.5","35","39.0","0.3413598","53km W of Seward, Alaska","60.0372","-150.3999","Alaska","28","1469707468000","2016-07-28 08:04:28","8","4","7","28","2016"
"ak13814046","57.599995392","2.4","89","4.0","0.5057515","123km NW of Arctic Village, Alaska","68.9615","-147.5099","Alaska","28","1469707717000","2016-07-28 08:08:37","8","8","7","37","2016"
"ak13832379","147.599988192","1.4","30","90.3","0.2973424","27km NNW of Anchor Point, Alaska","59.9948","-152.0532","Alaska","28","1469708070000","2016-07-28 08:14:30","8","14","7","30","2016"
"nn00553624","147.71","1.2","22","7.9","0.067","50km S of Goldfield, Nevada","37.2592","-117.3265","Nevada","28","1469708453903","2016-07-28 08:20:53","8","20","7","53","2016"
"ak13814049","89.999992800001","1.4","30","0.0","0.2129007","40km NE of Whittier, Alaska","61.0663","-148.2406","Alaska","28","1469708680000","2016-07-28 08:24:40","8","24","7","40","2016"
"ak13814050","129.599989632","1.3","26","8.8","0.1877479","139km NE of Cape Yakataga, Alaska","60.8833","-140.5022","Alaska","28","1469708812000","2016-07-28 08:26:52","8","26","7","52","2016"
"uu60156977","73.0","2.16","72","7.0","0.07709","14km NNE of Old Faithful Geyser, Wyoming","44.5768333","-110.7581667","Wyoming","28","1469709245870","2016-07-28 08:34:05","8","34","7","5","2016"
"pr16210009","349.2","2.4","89","83.0","0.33686823","37km E of Road Town, British Virgin Islands","18.4454","-64.2626","British Virgin Islands","28","1469709399100","2016-07-28 08:36:39","8","36","7","39","2016"
"nc72667526","52.0","1.31","26","2.35","0.01984","1km N of The Geysers, California","38.793","-122.7588333","California","28","1469709807810","2016-07-28 08:43:27","8","43","7","27","2016"
"ak13814052","35.99999712","1.5","35","44.3","0.3575295","73km ENE of Y, Alaska","62.4726","-148.6077","Alaska","28","1469710102000","2016-07-28 08:48:22","8","48","7","22","2016"
"ak13814053","61.199995104","1.4","30","29.6","0.2685963","28km SSE of Knik-Fairview, Alaska","61.2863","-149.3592","Alaska","28","1469710266000","2016-07-28 08:51:06","8","51","7","6","2016"
"ak13814055","136.799989056","1.4","30","16.3","0.03593261","44km WSW of Adak, Alaska","51.7808","-177.2855","Alaska","28","1469710880000","2016-07-28 09:01:20","9","1","7","20","2016"
"nn00553599","149.14","0.4","2","11.3","0.179","61km WNW of Beatty, Nevada","37.1517","-117.3861","Nevada","28","1469711360440","2016-07-28 09:09:20","9","9","7","20","2016"
"nn00553601","148.15","0.6","6","9.0","0.176","61km WNW of Beatty, Nevada","37.1512","-117.3781","Nevada","28","1469711374017","2016-07-28 09:09:34","9","9","7","34","2016"
"ak13814513","71.999994240001","1.3","26","1.8","0.5192262","120km NW of Arctic Village, Alaska","68.9415","-147.4935","Alaska","28","1469711420000","2016-07-28 09:10:20","9","10","7","20","2016"
"uu60156992","74.0","1.86","53","5.98","0.07968","13km NNE of Old Faithful Geyser, Wyoming","44.5706667","-110.7598333","Wyoming","28","1469711469910","2016-07-28 09:11:09","9","11","7","9","2016"
"ak13832386","71.999994240001","1.8","50","65.8","0.5183279","96km NW of Kodiak Station, Alaska","58.4109","-153.7017","Alaska","28","1469711532000","2016-07-28 09:12:12","9","12","7","12","2016"
"ak13814515","35.99999712","1.9","56","6.9","0.1536119","5km ESE of Talkeetna, Alaska","62.302","-150.0184","Alaska","28","1469711664000","2016-07-28 09:14:24","9","14","7","24","2016"
"ak13814519","172.799986176","2.1","68","10.3","0.7411101","19km W of Kiska Volcano, Alaska","52.0702","177.3202","Alaska","28","1469712200000","2016-07-28 09:23:20","9","23","7","20","2016"
"nn00553610","179.38","0.3","1","1.4","0.098","49km S of Goldfield, Nevada","37.2661","-117.145","Nevada","28","1469712343366","2016-07-28 09:25:43","9","25","7","43","2016"
"pr16210010","255.6","3.1","148","42.0","1.23608183","138km NNE of Vieques, Puerto Rico","19.5503","-65.2685","Puerto Rico","28","1469712405200","2016-07-28 09:26:45","9","26","7","45","2016"
"ak13814521","68.399994528","1.4","30","16.6","0.1473237","124km N of College, Alaska","65.977","-147.7564","Alaska","28","1469712408000","2016-07-28 09:26:48","9","26","7","48","2016"
"ak13832392","82.799993376001","1.4","30","77.0","0.3198002","52km WSW of Anchor Point, Alaska","59.5384","-152.6402","Alaska","28","1469712498000","2016-07-28 09:28:18","9","28","7","18","2016"
"ak13814523","21.599998272","1.8","50","113.6","0.4868869","91km NNW of Talkeetna, Alaska","63.0549","-150.9262","Alaska","28","1469712655000","2016-07-28 09:30:55","9","30","7","55","2016"
"ak13814526","100.799991936","1.1","19","37.9","0.3126137","14km SSE of Big Lake, Alaska","61.396","-149.8677","Alaska","28","1469712829000","2016-07-28 09:33:49","9","33","7","49","2016"
"nc72667536","208.0","0.5","4","1.44","0.02843","6km SSE of Mammoth Lakes, California","37.5921667","-118.9408333","California","28","1469712916410","2016-07-28 09:35:16","9","35","7","16","2016"
"ak13814527","89.999992800001","0.9","12","12.3","0.5147347","121km NW of Arctic Village, Alaska","68.9428","-147.5063","Alaska","28","1469713118000","2016-07-28 09:38:38","9","38","7","38","2016"
"nc72667541","106.0","0.73","8","0.04","0.03569","7km SSE of Mammoth Lakes, California","37.5816667","-118.9388333","California","28","1469713661370","2016-07-28 09:47:41","9","47","7","41","2016"
"us1000681q","58.0","2.7","112","5.429","0.0","11km SE of Cherokee, Oklahoma","36.6889","-98.2606","Oklahoma","28","1469713707600","2016-07-28 09:48:27","9","48","7","27","2016"
"ak13814528","61.199995104","0.4","2","10.0","0.07456017","15km WNW of Ester, Alaska","64.8939","-148.3138","Alaska","28","1469713919000","2016-07-28 09:51:59","9","51","7","59","2016"
"uu60157007","74.0","1.63","41","4.39","0.07953","13km NNE of Old Faithful Geyser, Wyoming","44.5698333","-110.761","Wyoming","28","1469714174910","2016-07-28 09:56:14","9","56","7","14","2016"
"uu60157012","95.0","0.74","8","7.82","0.08149","13km NNE of Old Faithful Geyser, Wyoming","44.5725","-110.7548333","Wyoming","28","1469714396510","2016-07-28 09:59:56","9","59","7","56","2016"
"ci37641560","129.0","0.88","12","9.68","0.05048","10km WNW of Morongo Valley, CA","34.0753333","-116.6896667","California","28","1469714421850","2016-07-28 10:00:21","10","0","7","21","2016"
"ak13814529","241.199980704","2.3","81","3.0","0.962994","124km S of Unalaska, Alaska","52.7623","-166.7218","Alaska","28","1469714440000","2016-07-28 10:00:40","10","0","7","40","2016"
"uu60157017","136.0","0.57","5","7.63","0.07746","13km NNE of Old Faithful Geyser, Wyoming","44.5716667","-110.7626667","Wyoming","28","1469715107480","2016-07-28 10:11:47","10","11","7","47","2016"
"uu60009445","143.0","0.98","15","2.18","0.08222","13km NNE of Old Faithful Geyser, Wyoming","44.5711667","-110.7478333","Wyoming","28","1469715114680","2016-07-28 10:11:54","10","11","7","54","2016"
"ak13832398","111.599991072","1.2","22","30.1","0.3602244","46km NNW of Valdez, Alaska","61.5159","-146.6768","Alaska","28","1469715229000","2016-07-28 10:13:49","10","13","7","49","2016"
"ak13832399","97.199992224001","1.0","15","107.1","0.3611227","81km WSW of Cantwell, Alaska","63.0933","-150.4281","Alaska","28","1469715256000","2016-07-28 10:14:16","10","14","7","16","2016"
"nc72667551","46.0","1.26","24","8.42","0.06886","15km NE of San Simeon, California","35.7323333","-121.0626667","California","28","1469715627580","2016-07-28 10:20:27","10","20","7","27","2016"
"nc72667566","84.0","2.25","78","4.81","0.01689","13km SE of Mammoth Lakes, California","37.5785","-118.8446667","California","28","1469716094690","2016-07-28 10:28:14","10","28","7","14","2016"
"ak13832400","226.799981856","1.8","50","18.5","0.9450277","115km S of False Pass, Alaska","53.8178","-163.2453","Alaska","28","1469716955000","2016-07-28 10:42:35","10","42","7","35","2016"
"nn00553592","192.3","0.5","4","10.0","0.176","30km SSW of Hawthorne, Nevada","38.2651","-118.728","Nevada","28","1469717113025","2016-07-28 10:45:13","10","45","7","13","2016"
"ci37641632","79.0","0.93","13","1.87","0.07168","16km NNE of Thousand Palms, CA","33.9481667","-116.323","California","28","1469718639370","2016-07-28 11:10:39","11","10","7","39","2016"
"nc72667581","71.0","1.91","56","3.04","0.01056","6km NW of The Geysers, California","38.8131667","-122.8168333","California","28","1469719208930","2016-07-28 11:20:08","11","20","7","8","2016"
"nc72667586","120.0","0.88","12","2.6","0.007699","6km NW of The Geysers, California","38.8103333","-122.8195038","California","28","1469719299030","2016-07-28 11:21:39","11","21","7","39","2016"
"nn00553613","256.62","0.4","2","12.3","0.175","17km NW of Hawthorne, Nevada","38.6522","-118.7445","Nevada","28","1469719536499","2016-07-28 11:25:36","11","25","7","36","2016"
"ak13814533","82.799993376001","0.3","1","9.8","0.2371552","25km WSW of Ester, Alaska","64.7505","-148.4959","Alaska","28","1469719592000","2016-07-28 11:26:32","11","26","7","32","2016"
"ci37641664","94.0","0.3","1","14.59","0.03991","12km ESE of Anza, CA","33.5206667","-116.5496667","California","28","1469719866760","2016-07-28 11:31:06","11","31","7","6","2016"
"uu60157042","139.0","0.81","10","5.18","0.08216","13km NNE of Old Faithful Geyser, Wyoming","44.572","-110.7541667","Wyoming","28","1469719868820","2016-07-28 11:31:08","11","31","7","8","2016"
"uw61172677","159.0","1.38","29","9.33","0.07053","21km NE of Montague, California","41.8516667","-122.3303333","California","28","1469719899780","2016-07-28 11:31:39","11","31","7","39","2016"
"ci37641672","65.0","1.25","24","2.17","0.06844","16km E of Desert Hot Springs, CA","33.962","-116.3305","California","28","1469720011110","2016-07-28 11:33:31","11","33","7","31","2016"
"us1000682i","78.0","4.6","326","36.96","2.955","48km NNW of Kish, Iran","26.9417","53.7754","Iran","28","1469720049390","2016-07-28 11:34:09","11","34","7","9","2016"
"us1000683b","62.0","5.1","400","5.12","2.984","163km SE of Hihifo, Tonga","-16.8242","-172.5158","Tonga","28","1469720661700","2016-07-28 11:44:21","11","44","7","21","2016"
"nc72667591","43.0","1.19","22","1.66","0.009621","4km W of Cobb, California","38.8225","-122.7768333","California","28","1469721064610","2016-07-28 11:51:04","11","51","7","4","2016"
"nn00553597","308.0","0.4","2","13.4","0.206","20km NW of Hawthorne, Nevada","38.6653","-118.7809","Nevada","28","1469721134160","2016-07-28 11:52:14","11","52","7","14","2016"
"ci37641680","81.0","1.15","20","1.77","0.07248","16km NNE of Thousand Palms, CA","33.953","-116.3228333","California","28","1469721323020","2016-07-28 11:55:23","11","55","7","23","2016"
"nn00553616","149.76","0.1","0","2.9","0.057","23km E of Hawthorne, Nevada","38.4878","-118.3646","Nevada","28","1469721445681","2016-07-28 11:57:25","11","57","7","25","2016"
"ak13832403","269.9999784","1.7","44","54.8","0.4024452","37km SSE of Atka, Alaska","51.8713","-174.0807","Alaska","28","1469721513000","2016-07-28 11:58:33","11","58","7","33","2016"
"ci37641688","84.0","0.55","5","3.27","0.04609","4km E of Banning, CA","33.9323333","-116.8348333","California","28","1469721572240","2016-07-28 11:59:32","11","59","7","32","2016"
"ak13832404","111.599991072","1.1","19","35.8","0.1625951","14km ENE of Willow, Alaska","61.7884","-149.7836","Alaska","28","1469721692000","2016-07-28 12:01:32","12","1","7","32","2016"
"ak13832405","71.999994240001","1.4","30","96.1","0.1581035","55km WNW of Anchor Point, Alaska","59.9415","-152.772","Alaska","28","1469722008000","2016-07-28 12:06:48","12","6","7","48","2016"
"us1000682z","93.0","4.4","298","27.88","4.022","48km NNE of As Sukhnah, Syria","35.2862","39.0889","Syria","28","1469722414240","2016-07-28 12:13:34","12","13","7","34","2016"
"ak13832406","212.399983008","1.3","26","12.1","0.3108171","44km S of Tanaga Volcano, Alaska","51.485","-178.1456","Alaska","28","1469722646000","2016-07-28 12:17:26","12","17","7","26","2016"
"ci37641704","78.0","0.79","10","1.99","0.06929","15km NNE of Thousand Palms, CA","33.9461667","-116.3256667","California","28","1469723150980","2016-07-28 12:25:50","12","25","7","50","2016"
"ci37641712","78.0","0.78","9","2.16","0.06966","15km NNE of Thousand Palms, CA","33.9471667","-116.3253333","California","28","1469723271000","2016-07-28 12:27:51","12","27","7","51","2016"
"ci37641720","59.0","1.49","34","10.59","0.03931","8km NNE of Santa Clarita, CA","34.4761667","-118.4605","California","28","1469723586830","2016-07-28 12:33:06","12","33","7","6","2016"
"ak13814995","68.399994528","1.2","22","55.1","0.2353586","13km NNE of Anchor Point, Alaska","59.8892","-151.7415","Alaska","28","1469723682000","2016-07-28 12:34:42","12","34","7","42","2016"
"ak13814998","75.599993952001","0.2","1","18.8","0.07545848","7km SSW of College, Alaska","64.798","-147.8794","Alaska","28","1469723786000","2016-07-28 12:36:26","12","36","7","26","2016"
"nc72667606","109.0","0.77","9","8.56","0.1179","25km SE of Mammoth Lakes, California","37.4766667","-118.7876667","California","28","1469724235390","2016-07-28 12:43:55","12","43","7","55","2016"
"ak13814999","226.799981856","2.5","96","3.9","0.9055018","121km S of Unalaska, Alaska","52.7936","-166.8035","Alaska","28","1469724589000","2016-07-28 12:49:49","12","49","7","49","2016"
"ak13832410","79.199993664001","1.5","35","79.5","0.2775794","63km WSW of Anchor Point, Alaska","59.481","-152.7985","Alaska","28","1469725084000","2016-07-28 12:58:04","12","58","7","4","2016"
"nc72667616","99.0","0.56","5","1.81","0.005894","7km NW of The Geysers, California","38.8143349","-122.8263321","California","28","1469725186650","2016-07-28 12:59:46","12","59","7","46","2016"
"ci37641768","64.0","1.16","21","1.68","0.07091","16km NNE of Thousand Palms, CA","33.9486667","-116.324","California","28","1469725289980","2016-07-28 13:01:29","13","1","7","29","2016"
"ak13832411","75.599993952001","1.1","19","5.7","0.4761071","55km NNE of Sutton-Alpine, Alaska","62.272","-148.5621","Alaska","28","1469725447000","2016-07-28 13:04:07","13","4","7","7","2016"
"ak13815001","255.599979552","2.3","81","46.5","1.037554","139km S of Unalaska, Alaska","52.6289","-166.7741","Alaska","28","1469725705000","2016-07-28 13:08:25","13","8","7","25","2016"
"ak13815003","237.599980992","2.5","96","13.8","0.8965187","123km S of Unalaska, Alaska","52.778","-166.8498","Alaska","28","1469725866000","2016-07-28 13:11:06","13","11","7","6","2016"
"ak13832414","287.99997696","1.2","22","23.3","0.4311913","60km SE of Adak, Alaska","51.4843","-176.0662","Alaska","28","1469726208000","2016-07-28 13:16:48","13","16","7","48","2016"
"ci37641776","92.0","1.89","55","26.12","0.2885","6km SSW of Wasco, CA","35.5403333","-119.3643333","California","28","1469726210160","2016-07-28 13:16:50","13","16","7","50","2016"
"ak13815006","244.799980416","1.8","50","4.3","0.91179","122km S of Unalaska, Alaska","52.7849","-166.8049","Alaska","28","1469727424000","2016-07-28 13:37:04","13","37","7","4","2016"
"ak13815007","53.99999568","1.9","56","101.1","0.1149844","49km WNW of Anchor Point, Alaska","59.9663","-152.6361","Alaska","28","1469728103000","2016-07-28 13:48:23","13","48","7","23","2016"
"ci37641832","73.0","0.96","14","10.76","0.0994","24km NE of Pine Valley, CA","32.9715","-116.351","California","28","1469728845800","2016-07-28 14:00:45","14","0","7","45","2016"
"ci37641848","77.0","0.82","10","17.07","0.07563","3km W of Yucaipa, CA","34.0326667","-117.0773333","California","28","1469728985470","2016-07-28 14:03:05","14","3","7","5","2016"
"ci37641856","30.0","1.71","45","5.56","0.02162","3km WSW of Borrego Springs, CA","33.2478333","-116.4083333","California","28","1469729519600","2016-07-28 14:11:59","14","11","7","59","2016"
"uw61172727","254.0","1.73","46","-1.54","0.3427","2km W of Prineville, Oregon","44.2975","-120.8655","Oregon","28","1469729645490","2016-07-28 14:14:05","14","14","7","5","2016"
"ak13815011","241.199980704","2.0","62","37.0","0.9998249","130km S of Unalaska, Alaska","52.7061","-166.7263","Alaska","28","1469730168000","2016-07-28 14:22:48","14","22","7","48","2016"
"nc72667646","141.0","0.27","1","1.51","0.01001","4km SSE of Cobb, California","38.786","-122.6968333","California","28","1469730191590","2016-07-28 14:23:11","14","23","7","11","2016"
"ci37641864","138.0","0.92","13","2.19","0.07979","20km ENE of Thermal, CA","33.7285","-115.9456667","California","28","1469730530380","2016-07-28 14:28:50","14","28","7","50","2016"
"ak13815012","215.99998272","2.5","96","37.6","0.8228568","88km SE of Atka, Alaska","51.5772","-173.3847","Alaska","28","1469730697000","2016-07-28 14:31:37","14","31","7","37","2016"
"ak13815016","89.999992800001","0.7","8","15.1","0.3090205","35km SSW of Cantwell, Alaska","63.0971","-149.2056","Alaska","28","1469730797000","2016-07-28 14:33:17","14","33","7","17","2016"
"uu60157072","134.0","1.61","40","11.13","0.1047","67km ENE of Old Faithful Geyser, Wyoming","44.6655","-110.0355","Wyoming","28","1469731267200","2016-07-28 14:41:07","14","41","7","7","2016"
"ci37641888","99.0","1.43","31","-0.97","0.05611","14km W of Mojave, CA","35.0458333","-118.3286667","California","28","1469731453510","2016-07-28 14:44:13","14","44","7","13","2016"
"ak13815017","97.199992224001","0.8","10","12.4","0.04671239","95km W of Cantwell, Alaska","63.5278","-150.8334","Alaska","28","1469731836000","2016-07-28 14:50:36","14","50","7","36","2016"
"us10006863","64.0","4.8","354","65.04","2.994","115km W of Panguna, Papua New Guinea","-6.1428","154.4552","Papua New Guinea","28","1469732469480","2016-07-28 15:01:09","15","1","7","9","2016"
"ak13815018","215.99998272","2.5","96","66.8","0.7707545","78km SSE of Atka, Alaska","51.5063","-173.9599","Alaska","28","1469732492000","2016-07-28 15:01:32","15","1","7","32","2016"
"ci37641896","56.0","0.93","13","-0.49","0.0422","4km NW of Nuevo, CA","33.8261667","-117.1776667","California","28","1469732655200","2016-07-28 15:04:15","15","4","7","15","2016"
"mb80163624","71.0","1.66","42","2.96","0.331","16km NW of Challis, Idaho","44.625","-114.3538333","Idaho","28","1469733194910","2016-07-28 15:13:14","15","13","7","14","2016"
"nc72667656","156.0","0.27","1","2.73","0.009474","7km NW of The Geysers, California","38.8216667","-122.822","California","28","1469733422390","2016-07-28 15:17:02","15","17","7","2","2016"
"uu60157087","59.0","1.75","47","5.73","0.07858","13km NNE of Old Faithful Geyser, Wyoming","44.5741667","-110.7581667","Wyoming","28","1469733635370","2016-07-28 15:20:35","15","20","7","35","2016"
"ak13815501","50.399995968","1.5","35","101.6","0.4275981","90km W of Talkeetna, Alaska","62.381","-151.8536","Alaska","28","1469734922000","2016-07-28 15:42:02","15","42","7","2","2016"
"nc72667661","29.0","1.95","58","5.75","0.03214","3km S of San Juan Bautista, California","36.81","-121.5371667","California","28","1469735339850","2016-07-28 15:48:59","15","48","7","59","2016"
"nc72667666","110.0","1.15","20","5.72","0.02298","7km NE of San Simeon, California","35.6818333","-121.1255","California","28","1469736051450","2016-07-28 16:00:51","16","0","7","51","2016"
"pr16210011","320.4","2.1","68","62.0","0.32968171","23km N of Road Town, British Virgin Islands","18.628","-64.6171","British Virgin Islands","28","1469736292200","2016-07-28 16:04:52","16","4","7","52","2016"
"nc72667671","107.0","3.22","164","6.15","0.02379","7km NE of San Simeon, California","35.6823333","-121.1245","California","28","1469736800550","2016-07-28 16:13:20","16","13","7","20","2016"
"ak13815507","201.599983872","3.5","188","27.1","0.8453147","116km S of Unalaska, Alaska","52.8432","-166.8639","Alaska","28","1469736859000","2016-07-28 16:14:19","16","14","7","19","2016"
"nc72667676","75.0","0.34","2","1.54","0.01326","0km ESE of The Geysers, California","38.7726667","-122.747","California","28","1469736952870","2016-07-28 16:15:52","16","15","7","52","2016"
"nc72667681","116.0","0.78","9","6.08","0.01734","6km NE of San Simeon, California","35.6806667","-121.1325","California","28","1469737025200","2016-07-28 16:17:05","16","17","7","5","2016"
"nn00553666","147.18","0.2","1","4.3","0.086","1km N of Cold Springs, Nevada","39.6928","-119.9769","Nevada","28","1469737061557","2016-07-28 16:17:41","16","17","7","41","2016"
"nc72667686","111.0","1.2","22","6.05","0.02203","7km NE of San Simeon, California","35.6816667","-121.1266667","California","28","1469737299470","2016-07-28 16:21:39","16","21","7","39","2016"
"nc72667691","110.0","1.64","41","5.98","0.02367","7km NE of San Simeon, California","35.6815","-121.1246667","California","28","1469737495350","2016-07-28 16:24:55","16","24","7","55","2016"
"nn00553661","244.33","0.3","1","11.5","0.166","32km N of Pahrump, Nevada","36.5009","-116.0098","Nevada","28","1469737546438","2016-07-28 16:25:46","16","25","7","46","2016"
"uu60157092","140.0","0.82","10","2.67","0.08017","12km NNE of Old Faithful Geyser, Wyoming","44.5658333","-110.7645","Wyoming","28","1469737842760","2016-07-28 16:30:42","16","30","7","42","2016"
"nc72667696","33.0","1.57","38","6.18","0.02916","6km ENE of East Foothills, California","37.3986667","-121.7516667","California","28","1469738106470","2016-07-28 16:35:06","16","35","7","6","2016"
"ak13815512","233.99998128","2.0","62","39.7","0.8578911","117km S of Unalaska, Alaska","52.8378","-166.8442","Alaska","28","1469739045000","2016-07-28 16:50:45","16","50","7","45","2016"
"hv61356251","76.0","1.98","60","0.673","0.007672","5km WSW of Volcano, Hawaii","19.4045","-155.2826667","Hawaii","28","1469739117460","2016-07-28 16:51:57","16","51","7","57","2016"
"uw61172777","93.0","0.25","1","1.32","0.02278","28km NNW of Packwood, Washington","46.856","-121.7575","Washington","28","1469739228390","2016-07-28 16:53:48","16","53","7","48","2016"
"uw61172782","92.0","0.74","8","1.19","0.02385","28km NNW of Packwood, Washington","46.8541667","-121.7571667","Washington","28","1469739254670","2016-07-28 16:54:14","16","54","7","14","2016"
"uw61172787","155.0","0.37","2","2.17","0.02432","28km NNW of Packwood, Washington","46.8543333","-121.7583333","Washington","28","1469739280490","2016-07-28 16:54:40","16","54","7","40","2016"
"mb80164189","188.0","1.96","59","-0.72","0.416","7km N of Ponderay, Idaho","48.3755","-116.5223333","Idaho","28","1469739589660","2016-07-28 16:59:49","16","59","7","49","2016"
"nc72667711","93.0","0.26","1","3.3","0.006401","6km NW of The Geysers, California","38.8181667","-122.8053333","California","28","1469739704570","2016-07-28 17:01:44","17","1","7","44","2016"
"nc72667716","110.0","0.78","9","5.6","0.02108","7km NE of San Simeon, California","35.682","-121.1278333","California","28","1469739705220","2016-07-28 17:01:45","17","1","7","45","2016"
"ak13832425","190.799984736","1.5","35","3.1","0.1904428","39km NE of Chignik Lake, Alaska","56.4738","-158.267","Alaska","28","1469740000000","2016-07-28 17:06:40","17","6","7","40","2016"
"ak13832426","226.799981856","1.1","19","27.1","0.1688833","42km SW of Adak, Alaska","51.6145","-177.1008","Alaska","28","1469740099000","2016-07-28 17:08:19","17","8","7","19","2016"
"pr16210012","320.4","2.4","89","42.0","0.47790373","53km NNE of Road Town, British Virgin Islands","18.8325","-64.3639","British Virgin Islands","28","1469740292200","2016-07-28 17:11:32","17","11","7","32","2016"
"ak13815513","183.599985312","1.5","35","13.2","0.1491203","26km S of Tanaga Volcano, Alaska","51.6521","-178.0728","Alaska","28","1469740997000","2016-07-28 17:23:17","17","23","7","17","2016"
"ci37642032","116.0","0.6","6","2.97","0.06717","15km N of Borrego Springs, CA","33.3928333","-116.3825","California","28","1469741195520","2016-07-28 17:26:35","17","26","7","35","2016"
"ci37642048","38.0","1.16","21","7.82","0.03292","4km NE of Palomar Observatory, CA","33.3796667","-116.8385","California","28","1469741750940","2016-07-28 17:35:50","17","35","7","50","2016"
"us100069ik","155.0","4.4","298","56.48","2.564","228km S of Taron, Papua New Guinea","-6.5073","153.3722","Papua New Guinea","28","1469741760600","2016-07-28 17:36:00","17","36","7","0","2016"
"ak13815514","39.599996832","1.8","50","11.6","0.3584278","119km NNW of Talkeetna, Alaska","63.2403","-151.3192","Alaska","28","1469742009000","2016-07-28 17:40:09","17","40","7","9","2016"
"ak13832429","259.199979264","1.6","39","3.6","0.8848406","120km S of Unalaska, Alaska","52.8035","-166.8364","Alaska","28","1469742199000","2016-07-28 17:43:19","17","43","7","19","2016"
"pr16210013","288.0","1.8","50","4.0","0.07006859","0km ENE of Pole Ojea, Puerto Rico","17.9785","-67.1771","Puerto Rico","28","1469742501300","2016-07-28 17:48:21","17","48","7","21","2016"
"us1000687z","64.0","4.9","369","59.18","4.679","102km ESE of Kuril'sk, Russia","44.8262","149.0556","Russia","28","1469742940450","2016-07-28 17:55:40","17","55","7","40","2016"
"ak13832430","251.99997984","1.8","50","40.4","0.5174296","55km SE of Nikolski, Alaska","52.5608","-168.3342","Alaska","28","1469743035000","2016-07-28 17:57:15","17","57","7","15","2016"
"uw61172832","57.0","2.28","80","45.35","0.1169","21km W of Belfair, Washington","47.4456667","-123.1155","Washington","28","1469743115400","2016-07-28 17:58:35","17","58","7","35","2016"
"nc72667746","87.0","1.2","22","5.25","0.03146","12km SE of Mammoth Lakes, California","37.5761667","-118.8646667","California","28","1469743521710","2016-07-28 18:05:21","18","5","7","21","2016"
"us10006bsh","203.0","2.9","129","22.18","1.017","115km S of Unalaska, Alaska","52.8506","-166.8466","Alaska","28","1469745239620","2016-07-28 18:33:59","18","33","7","59","2016"
"nc72667761","126.0","0.88","12","2.75","0.01018","6km WNW of The Geysers, California","38.8071671","-122.81633","California","28","1469745424800","2016-07-28 18:37:04","18","37","7","4","2016"
"ci37642072","141.0","2.75","116","5.87","0.3834","43km WSW of Carlsbad, CA","33.001","-117.7703333","California","28","1469746064470","2016-07-28 18:47:44","18","47","7","44","2016"
"us1000688b","46.0","4.4","298","154.07","1.148","95km W of Murghob, Tajikistan","38.1605","72.8734","Tajikistan","28","1469746271280","2016-07-28 18:51:11","18","51","7","11","2016"
"ci37642080","111.0","0.91","13","11.18","0.06958","0km NE of Lakeland Village, CA","33.639","-117.3435","California","28","1469746748390","2016-07-28 18:59:08","18","59","7","8","2016"
"ak13815524","32.399997408","1.4","30","2.7","0.182358","116km WNW of Talkeetna, Alaska","62.7133","-152.2003","Alaska","28","1469746981000","2016-07-28 19:03:01","19","3","7","1","2016"
"nn00553680","149.43","0.7","8","8.0","0.194","30km SSW of Hawthorne, Nevada","38.2719","-118.7506","Nevada","28","1469747048560","2016-07-28 19:04:08","19","4","7","8","2016"
"hv61356466","148.0","0.7","8","3.592","0.007374","24km ESE of Honaunau-Napoopoo, Hawaii","19.4065","-155.6343333","Hawaii","28","1469747168680","2016-07-28 19:06:08","19","6","7","8","2016"
"ak13815526","68.399994528","1.4","30","0.0","0.1320523","23km NNE of Badger, Alaska","64.9915","-147.3396","Alaska","28","1469747237000","2016-07-28 19:07:17","19","7","7","17","2016"
"ak13815995","233.99998128","1.9","56","0.7","0.880349","119km S of Unalaska, Alaska","52.8165","-166.8265","Alaska","28","1469747587000","2016-07-28 19:13:07","19","13","7","7","2016"
"nc72667771","110.0","0.79","10","6.22","0.02285","7km NE of San Simeon, California","35.6815","-121.1256667","California","28","1469747967820","2016-07-28 19:19:27","19","19","7","27","2016"
"hv61356496","41.0","1.94","58","5.91","0.06217","23km W of Volcano, Hawaii","19.434166","-155.4646606","Hawaii","28","1469748197730","2016-07-28 19:23:17","19","23","7","17","2016"
"ci37143524","77.0","0.91","13","1.44","0.07049","15km NNE of Thousand Palms, CA","33.9425","-116.324","California","28","1469748207230","2016-07-28 19:23:27","19","23","7","27","2016"
"ci37642096","79.0","1.07","18","1.62","0.07055","16km NNE of Thousand Palms, CA","33.9478333","-116.3243333","California","28","1469748219890","2016-07-28 19:23:39","19","23","7","39","2016"
"ak13832435","305.99997552","1.6","39","15.7","1.659188","54km NW of Kobuk, Alaska","67.2493","-157.7773","Alaska","28","1469748503000","2016-07-28 19:28:23","19","28","7","23","2016"
"nc72667776","121.0","1.56","37","4.58","0.09862","22km SSE of Mammoth Lakes, California","37.4701667","-118.8436667","California","28","1469748566310","2016-07-28 19:29:26","19","29","7","26","2016"
"ci37642104","95.0","0.79","10","9.73","0.09233","20km NNW of Borrego Springs, CA","33.4308333","-116.4273333","California","28","1469748574950","2016-07-28 19:29:34","19","29","7","34","2016"
"uu60157112","146.0","1.7","44","10.52","0.1012","67km ENE of Old Faithful Geyser, Wyoming","44.6766667","-110.041","Wyoming","28","1469748699600","2016-07-28 19:31:39","19","31","7","39","2016"
"uu60157117","148.0","1.51","35","9.47","0.1044","66km ENE of Old Faithful Geyser, Wyoming","44.6711667","-110.0411667","Wyoming","28","1469748699640","2016-07-28 19:31:39","19","31","7","39","2016"
"nc72667781","260.0","0.12","0","-0.69","0.0382","10km SE of Mammoth Lakes, California","37.5771667","-118.8956667","California","28","1469748788020","2016-07-28 19:33:08","19","33","7","8","2016"
"nc72667786","229.0","0.53","4","5.23","0.03176","13km SE of Mammoth Lakes, California","37.5703333","-118.8605","California","28","1469748949600","2016-07-28 19:35:49","19","35","7","49","2016"
"ci37642120","53.0","1.06","17","7.63","0.05852","10km ENE of Desert Hot Springs, CA","33.9993333","-116.4101667","California","28","1469749383560","2016-07-28 19:43:03","19","43","7","3","2016"
"uu60157122","58.0","1.87","54","10.7","0.07789","11km WSW of Moroni, Utah","39.4856667","-111.7176667","Utah","28","1469749438350","2016-07-28 19:43:58","19","43","7","58","2016"
"ci37642128","41.0","0.99","15","4.87","0.03908","3km SW of Anza, CA","33.5381667","-116.6946667","California","28","1469749597510","2016-07-28 19:46:37","19","46","7","37","2016"
"ak13815997","93.599992512001","0.2","1","16.5","0.08264501","6km WNW of Salcha, Alaska","64.5479","-147.0142","Alaska","28","1469749898000","2016-07-28 19:51:38","19","51","7","38","2016"
"us100069im","159.0","4.1","259","107.72","1.034","73km W of Tobelo, Indonesia","1.8134","127.3515","Indonesia","28","1469750184280","2016-07-28 19:56:24","19","56","7","24","2016"
